{"version": 0.6, "generator": "Overpass API 0.7.57.1 74a55df1", "osm3s": {"timestamp_osm_base": "2022-06-09T12:14:11Z", "copyright": "The data included in this document is from www.openstreetmap.org. The data is made available under ODbL."}, "elements": [{"type": "node", "id": 251544377, "lat": 55.8770116, "lon": 37.6458512, "tags": {"contact:phone": "+7 499 4784444", "contact:website": "http://zags.mgportal.ru/", "government": "register_office", "name": "\u041c\u0435\u0434\u0432\u0435\u0434\u043a\u043e\u0432\u0441\u043a\u0438\u0439 \u043e\u0442\u0434\u0435\u043b \u0417\u0410\u0413\u0421", "name:en": "Civil Status Registration Office", "office": "government", "opening_hours": "Tu-Sa 09:00-13:30,15:00-17:30"}}, {"type": "node", "id": 266260980, "lat": 55.941431, "lon": 37.4968326, "tags": {"name": "\u041c\u0438\u0433\u0440\u0430\u0446\u0438\u043e\u043d\u043d\u044b\u0439 \u043f\u0443\u043d\u043a\u0442 \u2116 6", "office": "government", "official_name": "\u041c\u0435\u0436\u043c\u0443\u043d\u0438\u0446\u0438\u043f\u0430\u043b\u044c\u043d\u043e\u0435 \u0443\u043f\u0440\u0430\u0432\u043b\u0435\u043d\u0438\u0435 \u041c\u0412\u0414 \u0420\u0424 \"\u041c\u044b\u0442\u0438\u0449\u0438\u043d\u0441\u043a\u043e\u0435\", \u041c\u0438\u0433\u0440\u0430\u0446\u0438\u043e\u043d\u043d\u044b\u0439 \u043f\u0443\u043d\u043a\u0442 \u2116 6 \u043e\u0442\u0434\u0435\u043b\u0430 \u043f\u043e \u0432\u043e\u043f\u0440\u043e\u0441\u0430\u043c \u043c\u0438\u0433\u0440\u0430\u0446\u0438\u0438", "phone": "+7 495 5768418", "source": "http://dolgopia.org/%D0%A3%D0%A4%D0%9C%D0%A1", "website": "http://dfms.ru/"}}, {"type": "node", "id": 317232723, "lat": 55.6906071, "lon": 37.8210599, "tags": {"name": "\u0426\u041e\u0414\u0414", "office": "yes"}}, {"type": "node", "id": 380729527, "lat": 55.7540334, "lon": 37.7144778, "tags": {"contact:website": "http://uvao.mos.ru", "name": "\u041f\u0440\u0435\u0444\u0435\u043a\u0442\u0443\u0440\u0430 \u042e\u0412\u0410\u041e \u0433. \u041c\u043e\u0441\u043a\u0432\u044b", "office": "government"}}, {"type": "node", "id": 432502061, "lat": 55.7790193, "lon": 37.6017619, "tags": {"name": "\u041c\u043e\u0441\u043a\u043e\u0432\u0441\u043a\u0430\u044f \u0421\u0442\u0440\u0430\u0445\u043e\u0432\u0430\u044f \u041a\u043e\u043c\u043f\u0430\u043d\u0438\u044f", "office": "insurance"}}, {"type": "node", "id": 432507349, "lat": 55.7792066, "lon": 37.6028396, "tags": {"name": "\u0418\u043d\u0444\u043e\u0440\u043c\u0441\u0442\u0440\u0430\u0445", "office": "insurance"}}, {"type": "node", "id": 483324193, "lat": 55.8565857, "lon": 37.4198819, "tags": {"addr:city": "\u041c\u043e\u0441\u043a\u0432\u0430", "addr:country": "RU", "addr:housenumber": "29 \u043a1", "addr:postcode": "125480", "addr:street": "\u0422\u0443\u0440\u0438\u0441\u0442\u0441\u043a\u0430\u044f \u0443\u043b\u0438\u0446\u0430", "name": "\u0423\u043f\u0440\u0430\u0432\u0430 \u0440\u0430\u0439\u043e\u043d\u0430 \u0421\u0435\u0432\u0435\u0440\u043d\u043e\u0435 \u0422\u0443\u0448\u0438\u043d\u043e", "office": "government"}}, {"type": "node", "id": 510113949, "lat": 55.7649729, "lon": 37.6674539, "tags": {"addr:housenumber": "12 \u04411", "addr:street": "\u0413\u043e\u0440\u043e\u0445\u043e\u0432\u0441\u043a\u0438\u0439 \u043f\u0435\u0440\u0435\u0443\u043b\u043e\u043a", "country": "EC", "diplomatic": "embassy", "embassy": "yes", "name": "\u043f\u043e\u0441\u043e\u043b\u044c\u0441\u0442\u0432\u043e \u042d\u043a\u0432\u0430\u0434\u043e\u0440\u0430", "name:en": "Embassy of Equador", "name:fr": "Ambassade d'\u00c9quateur", "name:ru": "\u043f\u043e\u0441\u043e\u043b\u044c\u0441\u0442\u0432\u043e \u042d\u043a\u0432\u0430\u0434\u043e\u0440\u0430", "office": "diplomatic", "phone": "+7 495 2615530"}}, {"type": "node", "id": 513758924, "lat": 55.8479433, "lon": 37.3553434, "tags": {"check_date": "2022-06-03", "name": "\u0423\u043f\u0440\u0430\u0432\u0430 \u0440\u0430\u0439\u043e\u043d\u0430 \u041c\u0438\u0442\u0438\u043d\u043e", "office": "government", "wheelchair": "yes"}}, {"type": "node", "id": 526557513, "lat": 55.8696497, "lon": 37.6619057, "tags": {"contact:phone": "+7 499 1860070", "government": "register_office", "name": "\u0411\u0430\u0431\u0443\u0448\u043a\u0438\u043d\u0441\u043a\u0438\u0439 \u043e\u0442\u0434\u0435\u043b \u0417\u0410\u0413\u0421", "name:en": "Civil Status Registration Office of Babushkinskiy District", "office": "government", "opening_hours": "Tu-Sa 09:00-13:30,15:00-17:30", "source": "zags.mos.ru"}}, {"type": "node", "id": 530204987, "lat": 55.7467403, "lon": 37.6471724, "tags": {"amenity": "customs", "contact:phone": "+7 495 9158127", "contact:website": "http://cat.customs.ru/", "name": "\u0426\u0435\u043d\u0442\u0440\u0430\u043b\u044c\u043d\u0430\u044f \u0430\u043a\u0446\u0438\u0437\u043d\u0430\u044f \u0442\u0430\u043c\u043e\u0436\u043d\u044f", "office": "government"}}, {"type": "node", "id": 530602344, "lat": 55.7123358, "lon": 37.7582432, "tags": {"name": "\u041d\u043e\u0442\u0430\u0440\u0438\u0430\u043b\u044c\u043d\u0430\u044f \u043a\u043e\u043d\u0442\u043e\u0440\u0430", "office": "notary"}}, {"type": "node", "id": 534164884, "lat": 55.6820028, "lon": 37.8557449, "tags": {"name": "\u0416\u042d\u041a", "office": "property_management"}}, {"type": "node", "id": 555943220, "lat": 55.7003427, "lon": 37.7456191, "tags": {"government": "register_office", "name": "\u0414\u0432\u043e\u0440\u0435\u0446 \u0411\u0440\u0430\u043a\u043e\u0441\u043e\u0447\u0435\u0442\u0430\u043d\u0438\u044f \u21163", "office": "government", "opening_hours": "Tu-Sa 09:00-14:00,15:00-18:00", "phone": "+7 499 1796614", "source": "zags.mos.ru", "wikidata": "Q745221", "wikipedia": "ru:\u0417\u0410\u0413\u0421"}}, {"type": "node", "id": 570994449, "lat": 55.6999799, "lon": 37.5650897, "tags": {"name": "\u0422\u0443\u0440\u0444\u0438\u0440\u043c\u0430 \"\u041b\u043e\u0445\u043c\u0430\u0442\u044b\u0439 \u043a\u0430\u0448\u0430\u043b\u043e\u0442\"", "office": "company"}}, {"type": "node", "id": 571445187, "lat": 55.8083802, "lon": 37.5233786, "tags": {"addr:housenumber": "3", "addr:street": "2-\u0439 \u0411\u0430\u043b\u0442\u0438\u0439\u0441\u043a\u0438\u0439 \u043f\u0435\u0440\u0435\u0443\u043b\u043e\u043a", "contact:website": "http://dogm.mos.ru", "government": "education", "name": "\u041c\u043e\u0441\u043a\u043e\u0432\u0441\u043a\u0438\u0439 \u0446\u0435\u043d\u0442\u0440 \u043a\u0430\u0447\u0435\u0441\u0442\u0432\u0430 \u043e\u0431\u0440\u0430\u0437\u043e\u0432\u0430\u043d\u0438\u044f", "office": "government", "operator": "\u0414\u0435\u043f\u0430\u0440\u0442\u0430\u043c\u0435\u043d\u0442 \u043e\u0431\u0440\u0430\u0437\u043e\u0432\u0430\u043d\u0438\u044f \u0433. \u041c\u043e\u0441\u043a\u0432\u044b"}}, {"type": "node", "id": 588155406, "lat": 55.8689992, "lon": 37.6700894, "tags": {"lawyer": "notary", "name": "\u041d\u043e\u0442\u0430\u0440\u0438\u0443\u0441", "office": "lawyer", "opening_hours": "Mo-Fr 09:30-18:00;Sa 10:00-17:00; Su 10:00-14:00; 14:00-15:00 off"}}, {"type": "node", "id": 593991927, "lat": 55.8681323, "lon": 37.6797799, "tags": {"name": "\u042e\u0440\u0438\u0434\u0438\u0447\u0435\u0441\u043a\u0430\u044f \u043a\u043e\u043d\u0441\u0443\u043b\u044c\u0442\u0430\u0446\u0438\u044f \u211617", "office": "lawyer"}}, {"type": "node", "id": 610804802, "lat": 55.8021085, "lon": 37.5089371, "tags": {"admin_level": "2", "alt_name": "\u0412\u043e\u0435\u043d\u043a\u043e\u043c\u0430\u0442 \u0440\u0430\u0439\u043e\u043d\u0430 \u0413\u043e\u043b\u043e\u0432\u0438\u043d\u0441\u043a\u0438\u0439", "description": "\u0412\u043e\u0435\u043d\u043a\u043e\u043c\u0430\u0442, \u041c\u043e\u0441\u043a\u0432\u0430, \u0421\u0410\u041e, \u0421\u043e\u043a\u043e\u043b", "military": "office", "name": "\u0413\u043e\u043b\u043e\u0432\u0438\u043d\u0441\u043a\u0438\u0439 \u0412\u043e\u0435\u043d\u043a\u043e\u043c\u0430\u0442", "name:en": "Military Registration and Enlistment Office of Golovinskiy District", "office": "government", "opening_hours": "Mo-We 10:00-13:00,14:00-17:00", "phone": "+7 499 1989339"}}, {"type": "node", "id": 621918658, "lat": 55.7194921, "lon": 37.5197423, "tags": {"addr:housenumber": "38", "addr:street": "\u041c\u043e\u0441\u0444\u0438\u043b\u044c\u043c\u043e\u0432\u0441\u043a\u0430\u044f \u0443\u043b\u0438\u0446\u0430", "country": "LY", "diplomatic": "embassy", "embassy": "yes", "name": "\u041f\u043e\u0441\u043e\u043b\u044c\u0441\u0442\u0432\u043e \u041b\u0438\u0432\u0438\u0438", "name:ar": "\u0633\u0641\u0627\u0631\u0629 \u0644\u064a\u0628\u064a\u0627", "name:de": "Botschaft Libyen", "name:en": "Embassy of Libya", "name:fr": "Ambassade de Libye", "name:ru": "\u041f\u043e\u0441\u043e\u043b\u044c\u0441\u0442\u0432\u043e \u041b\u0438\u0432\u0438\u0438", "office": "diplomatic", "opening_hours": "Mo-Fr 09:00-15:00", "phone": "+7 499 143-03-54", "target": "RU", "wikidata": "Q4374013"}}, {"type": "node", "id": 621974631, "lat": 55.7185857, "lon": 37.5142277, "tags": {"addr:city": "\u041c\u043e\u0441\u043a\u0432\u0430", "addr:housenumber": "4", "addr:postcode": "115127", "addr:street": "\u0443\u043b\u0438\u0446\u0430 \u0423\u043b\u043e\u0444\u0430 \u041f\u0430\u043b\u044c\u043c\u0435", "alt_name:en": "Emirati Embassy", "country": "AE", "diplomatic": "embassy", "email": "moscowemb@mofa.gov.ae", "embassy": "yes", "fax": "+7 495 2344070", "name": "\u041f\u043e\u0441\u043e\u043b\u044c\u0441\u0442\u0432\u043e \u041e\u0431\u044a\u0435\u0434\u0438\u043d\u0435\u043d\u043d\u044b\u0445 \u0410\u0440\u0430\u0431\u0441\u043a\u0438\u0445 \u042d\u043c\u0438\u0440\u0430\u0442\u043e\u0432", "name:ar": "\u0633\u0641\u0627\u0631\u0629 \u0627\u0644\u0625\u0645\u0627\u0631\u0627\u062a \u0627\u0644\u0639\u0631\u0628\u064a\u0629 \u0627\u0644\u0645\u062a\u062d\u062f\u0629", "name:de": "Botschaft der Vereinigten Arabischen Emirate", "name:en": "Embassy of the United Arab Emirates", "name:es": "Embajada de Emiratos \u00c1rabes Unidos", "name:fr": "Ambassade des \u00c9mirats arabes unis", "name:it": "Ambasciata degli Emirati Arabi Uniti", "name:nl": "Ambassade van de Verenigde Arabische Emiraten", "name:pl": "Ambasada Zjednoczonych Emirat\u00f3w Arabskich", "name:pt": "Embaixada dos Emirados \u00c1rabes Unidos", "name:ru": "\u041f\u043e\u0441\u043e\u043b\u044c\u0441\u0442\u0432\u043e \u041e\u0431\u044a\u0435\u0434\u0438\u043d\u0435\u043d\u043d\u044b\u0445 \u0410\u0440\u0430\u0431\u0441\u043a\u0438\u0445 \u042d\u043c\u0438\u0440\u0430\u0442\u043e\u0432", "name:sr": "\u0430\u043c\u0431\u0430\u0441\u0430\u0434\u0430 \u0423\u0458\u0435\u0434\u0438\u045a\u0435\u043d\u0438\u0445 \u0410\u0440\u0430\u043f\u0441\u043a\u0438\u0445 \u0415\u043c\u0438\u0440\u0430\u0442\u0430", "name:tr": "Birle\u015fik Arap Emirlikleri B\u00fcy\u00fckel\u00e7ili\u011fi", "office": "diplomatic", "official_name": "\u043f\u043e\u0441\u043e\u043b\u044c\u0441\u0442\u0432\u043e \u041e\u0431\u044a\u0435\u0434\u0438\u043d\u0435\u043d\u043d\u044b\u0445 \u0410\u0440\u0430\u0431\u0441\u043a\u0438\u0445 \u042d\u043c\u0438\u0440\u0430\u0442\u043e\u0432", "opening_hours": "Mo-Fr 09:00-15:00", "operator": "Omar Saif Ghobashi", "phone": "+7 495 2344060", "short_name:de": "VAE Botschaft", "short_name:en": "UAE Embassy", "short_name:ru": "\u041f\u043e\u0441\u043e\u043b\u044c\u0441\u0442\u0432\u043e \u041e\u0410\u042d", "target": "RU", "website": "https://www.mofaic.gov.ae/missions/UAE-Missions-Abroad/UAE-Missions-Abroad-Details?countryId=76cf09aa-d15b-4b95-b038-74eb06b52125", "wikidata": "Q81976082"}}, {"type": "node", "id": 622000107, "lat": 55.7200775, "lon": 37.5188446, "tags": {"addr:housenumber": "44\u0410", "addr:street": "\u041c\u043e\u0441\u0444\u0438\u043b\u044c\u043c\u043e\u0432\u0441\u043a\u0430\u044f \u0443\u043b\u0438\u0446\u0430", "country": "KW", "diplomatic": "embassy", "embassy": "yes", "name": "\u041f\u043e\u0441\u043e\u043b\u044c\u0441\u0442\u0432\u043e \u041a\u0443\u0432\u0435\u0439\u0442\u0430", "name:ar": "\u0633\u0641\u0627\u0631\u0629 \u0627\u0644\u0643\u0648\u064a\u062a", "name:de": "Kuweitische Botschaft", "name:en": "Embassy of Kuwait", "name:fr": "Ambassade du Kowe\u00eft", "name:ru": "\u041f\u043e\u0441\u043e\u043b\u044c\u0441\u0442\u0432\u043e \u041a\u0443\u0432\u0435\u0439\u0442\u0430", "office": "diplomatic", "opening_hours": "Mo-Fr 09:00-15:00", "target": "RU", "wikidata": "Q106205945"}}, {"type": "node", "id": 622006644, "lat": 55.7525862, "lon": 37.6424555, "tags": {"country": "AU", "diplomatic": "embassy", "embassy": "yes", "name": "\u041f\u043e\u0441\u043e\u043b\u044c\u0441\u0442\u0432\u043e \u0410\u0432\u0441\u0442\u0440\u0430\u043b\u0438\u0438", "name:ca": "Ambaixada d'Austr\u00e0lia", "name:en": "Australia Embassy", "name:fr": "Ambassade d'Australie", "office": "diplomatic", "opening_hours": "Mo-Fr 09:00-17:00", "target": "RU", "wikidata": "Q4373961", "wikipedia": "ru:\u041f\u043e\u0441\u043e\u043b\u044c\u0441\u0442\u0432\u043e \u0410\u0432\u0441\u0442\u0440\u0430\u043b\u0438\u0438 \u0432 \u0420\u043e\u0441\u0441\u0438\u0438"}}, {"type": "node", "id": 640587505, "lat": 55.8641848, "lon": 37.466238, "tags": {"description": "\u043a\u0432\u0430\u0440\u0442\u0438\u0440\u0430 \u0410\u043d\u0442\u043e\u043d\u0430 \u041a\u0440\u043e\u0442\u043e\u0432\u0430", "name": "\u041a\u043b\u0443\u0431 \u0430\u0432\u0442\u043e\u0441\u0442\u043e\u043f\u0430 \u0410\u043a\u0430\u0434\u0435\u043c\u0438\u044f \u0432\u043e\u043b\u044c\u043d\u044b\u0445 \u043f\u0443\u0442\u0435\u0448\u0435\u0441\u0442\u0432\u0438\u0439", "office": "association"}}, {"type": "node", "id": 660562337, "lat": 55.5953254, "lon": 37.724038, "tags": {"government": "migration", "name": "\u0423\u0424\u041c\u0421 \u0433. \u041c\u043e\u0441\u043a\u0432\u044b \u043f\u043e \u042e\u0410\u041e", "office": "government"}}, {"type": "node", "id": 665958310, "lat": 55.6489152, "lon": 37.3927752, "tags": {"government": "social_services", "name": "\u0421\u043e\u0431\u0435\u0441", "office": "government", "official_name": "\u0423\u043f\u0440\u0430\u0432\u043b\u0435\u043d\u0438\u0435 \u0441\u043e\u0446\u0438\u0430\u043b\u044c\u043d\u043e\u0439 \u0437\u0430\u0449\u0438\u0442\u044b \u043d\u0430\u0441\u0435\u043b\u0435\u043d\u0438\u044f \u0440\u0430\u0439\u043e\u043d\u0430 \u0421\u043e\u043b\u043d\u0446\u0435\u0432\u043e \u0433\u043e\u0440\u043e\u0434\u0430 \u041c\u043e\u0441\u043a\u0432\u044b", "opening_hours": "Mo 11:00-13:45,14:30-20:00; We 09:00-13:45,14:30-18:00; Fr 09:00-13:45,14:30-16:45", "phone": "+7 495 4354147", "wikidata": "Q4427892", "wikipedia": "ru:\u0421\u043e\u043b\u043d\u0446\u0435\u0432\u043e (\u0441\u0442\u0430\u043d\u0446\u0438\u044f \u043c\u0435\u0442\u0440\u043e)"}}, {"type": "node", "id": 666283542, "lat": 55.8582564, "lon": 37.6409519, "tags": {"amenity": "research_institute", "contact:website": "https://tsniis.com", "name": "\u041d\u0430\u0443\u0447\u043d\u043e-\u0438\u0441\u0441\u043b\u0435\u0434\u043e\u0432\u0430\u0442\u0435\u043b\u044c\u0441\u043a\u0438\u0439 \u0438\u043d\u0441\u0442\u0438\u0442\u0443\u0442 \u0442\u0440\u0430\u043d\u0441\u043f\u043e\u0440\u0442\u043d\u043e\u0433\u043e \u0441\u0442\u0440\u043e\u0438\u0442\u0435\u043b\u044c\u0441\u0442\u0432\u0430", "office": "research", "short_name": "\u0426\u041d\u0418\u0418\u0421"}}, {"type": "node", "id": 698892110, "lat": 55.7429332, "lon": 37.5904418, "tags": {"consulate": "yes", "country": "AT", "diplomatic": "consulate", "name": "\u041a\u043e\u043d\u0441\u0443\u043b\u044c\u0441\u0442\u0432\u043e \u0410\u0432\u0441\u0442\u0440\u0438\u0438", "name:de": "\u00d6sterreichische Botschaft", "name:en": "Consulate of Austria", "name:ru": "\u041a\u043e\u043d\u0441\u0443\u043b\u044c\u0441\u0442\u0432\u043e \u0410\u0432\u0441\u0442\u0440\u0438\u0438", "office": "diplomatic", "target": "RU"}}, {"type": "node", "id": 698892145, "lat": 55.769001, "lon": 37.6067085, "tags": {"addr:housenumber": "4\u0410", "addr:street": "\u0423\u0441\u043f\u0435\u043d\u0441\u043a\u0438\u0439 \u043f\u0435\u0440\u0435\u0443\u043b\u043e\u043a", "country": "SD", "diplomatic": "embassy", "embassy": "yes", "name": "\u041f\u043e\u0441\u043e\u043b\u044c\u0441\u0442\u0432\u043e \u0421\u0443\u0434\u0430\u043d\u0430", "name:ar": "\u0633\u0641\u0627\u0631\u0629 \u0627\u0644\u0633\u0648\u062f\u0627\u0646", "name:en": "Sudan Embassy", "name:fr": "Ambassade du Soudan", "office": "diplomatic", "phone": "+7 495 699-54-61", "target": "RU", "wikidata": "Q4374056", "wikipedia": "ru:\u041f\u043e\u0441\u043e\u043b\u044c\u0441\u0442\u0432\u043e \u0421\u0443\u0434\u0430\u043d\u0430 \u0432 \u0420\u043e\u0441\u0441\u0438\u0438"}}, {"type": "node", "id": 698892149, "lat": 55.7696838, "lon": 37.6058863, "tags": {"country": "SI", "diplomatic": "embassy", "embassy": "yes", "name": "\u043f\u043e\u0441\u043e\u043b\u044c\u0441\u0442\u0432\u043e \u0421\u043b\u043e\u0432\u0435\u043d\u0438\u0438", "name:fr": "Ambassade de Slov\u00e9nie", "office": "diplomatic", "target": "RU"}}, {"type": "node", "id": 698892150, "lat": 55.7669296, "lon": 37.6164169, "tags": {"addr:housenumber": "1\u0410", "addr:street": "\u041a\u0440\u0430\u043f\u0438\u0432\u0435\u043d\u0441\u043a\u0438\u0439 \u043f\u0435\u0440\u0435\u0443\u043b\u043e\u043a", "country": "DZ", "diplomatic": "embassy", "embassy": "yes", "name": "\u041f\u043e\u0441\u043e\u043b\u044c\u0441\u0442\u0432\u043e \u0410\u043b\u0436\u0438\u0440\u0430", "name:ca": "Ambaixada d'Alg\u00e8ria", "name:de": "Algerische Botschaft", "name:en": "Embassy of Algeria", "name:fr": "Ambassade d'Alg\u00e9rie", "name:ru": "\u041f\u043e\u0441\u043e\u043b\u044c\u0441\u0442\u0432\u043e \u0410\u043b\u0436\u0438\u0440\u0430", "office": "diplomatic", "phone": "+7 495.937 4600", "target": "RU", "website": "http://www.algerianembassy.ru", "wikidata": "Q2841581", "wikipedia": "fr:Ambassade d'Alg\u00e9rie en Russie"}}, {"type": "node", "id": 698892153, "lat": 55.7754321, "lon": 37.622791, "tags": {"addr:housenumber": "4", "addr:street": "2-\u0439 \u0422\u0440\u043e\u0438\u0446\u043a\u0438\u0439 \u043f\u0435\u0440\u0435\u0443\u043b\u043e\u043a", "contact:phone": "+7 495 9566105", "contact:website": "http://rusia.embajada.gob.ve", "country": "VE", "diplomatic": "embassy", "embassy": "yes", "name": "\u043f\u043e\u0441\u043e\u043b\u044c\u0441\u0442\u0432\u043e \u0412\u0435\u043d\u0435\u0441\u0443\u044d\u043b\u044b", "name:en": "Embassy of Venezuela", "name:fr": "Ambassade du V\u00e9n\u00e9zuela", "name:ru": "\u043f\u043e\u0441\u043e\u043b\u044c\u0441\u0442\u0432\u043e \u0412\u0435\u043d\u0435\u0441\u0443\u044d\u043b\u044b", "office": "diplomatic", "official_name": "\u043f\u043e\u0441\u043e\u043b\u044c\u0441\u0442\u0432\u043e \u0411\u043e\u043b\u0438\u0432\u0430\u0440\u0438\u0430\u043d\u0441\u043a\u043e\u0439 \u0420\u0443\u0441\u043f\u0443\u0431\u043b\u0438\u043a\u0438 \u0412\u0435\u043d\u0435\u0441\u0443\u044d\u043b\u0430", "target": "RU", "wikidata": "Q4373980", "wikipedia": "ru:\u041f\u043e\u0441\u043e\u043b\u044c\u0441\u0442\u0432\u043e \u0412\u0435\u043d\u0435\u0441\u0443\u044d\u043b\u044b \u0432 \u0420\u043e\u0441\u0441\u0438\u0438"}}, {"type": "node", "id": 698892155, "lat": 55.7582251, "lon": 37.6380818, "tags": {"addr:housenumber": "17/6 \u04411", "addr:housenumber2": "6/17", "addr:street": "\u0443\u043b\u0438\u0446\u0430 \u041c\u0430\u0440\u043e\u0441\u0435\u0439\u043a\u0430", "addr:street2": "\u0410\u0440\u043c\u044f\u043d\u0441\u043a\u0438\u0439 \u043f\u0435\u0440\u0435\u0443\u043b\u043e\u043a", "country": "BY", "diplomatic": "embassy", "embassy": "yes", "name": "\u041f\u043e\u0441\u043e\u043b\u044c\u0441\u0442\u0432\u043e \u0411\u0435\u043b\u0430\u0440\u0443\u0441\u0438", "name:be": "\u041f\u0430\u0441\u043e\u043b\u044c\u0441\u0442\u0432\u0430 \u0411\u0435\u043b\u0430\u0440\u0443\u0441\u0456", "name:ca": "Ambaixada de Bielor\u00fassia", "name:de": "Wei\u00dfrussische Botschaft", "name:en": "Embassy of Belarus", "name:fr": "Ambassade de Bi\u00e9lorussie", "name:ru": "\u041f\u043e\u0441\u043e\u043b\u044c\u0441\u0442\u0432\u043e \u0411\u0435\u043b\u0430\u0440\u0443\u0441\u0438", "office": "diplomatic", "official_name": "\u041f\u043e\u0441\u043e\u043b\u044c\u0441\u0442\u0432\u043e \u0420\u0435\u0441\u043f\u0443\u0431\u043b\u0438\u043a\u0438 \u0411\u0435\u043b\u0430\u0440\u0443\u0441\u044c \u0432 \u0420\u043e\u0441\u0441\u0438\u0439\u0441\u043a\u043e\u0439 \u0424\u0435\u0434\u0435\u0440\u0430\u0446\u0438\u0438", "official_name:be": "\u041f\u0430\u0441\u043e\u043b\u044c\u0441\u0442\u0432\u0430 \u0420\u044d\u0441\u043f\u0443\u0431\u043b\u0456\u043a\u0456 \u0411\u0435\u043b\u0430\u0440\u0443\u0441\u044c \u0443 \u0420\u0430\u0441\u0456\u0439\u0441\u043a\u0430\u0439 \u0424\u0435\u0434\u044d\u0440\u0430\u0446\u044b\u0456", "official_name:ru": "\u041f\u043e\u0441\u043e\u043b\u044c\u0441\u0442\u0432\u043e \u0420\u0435\u0441\u043f\u0443\u0431\u043b\u0438\u043a\u0438 \u0411\u0435\u043b\u0430\u0440\u0443\u0441\u044c \u0432 \u0420\u043e\u0441\u0441\u0438\u0439\u0441\u043a\u043e\u0439 \u0424\u0435\u0434\u0435\u0440\u0430\u0446\u0438\u0438", "phone": "+7 495 7776644", "target": "RU", "website": "http://www.embassybel.ru", "wikidata": "Q3918724", "wikipedia": "ru:\u041f\u043e\u0441\u043e\u043b\u044c\u0441\u0442\u0432\u043e \u0411\u0435\u043b\u043e\u0440\u0443\u0441\u0441\u0438\u0438 \u0432 \u0420\u043e\u0441\u0441\u0438\u0438"}}, {"type": "node", "id": 698892160, "lat": 55.7605941, "lon": 37.6347965, "tags": {"country": "AM", "diplomatic": "embassy", "embassy": "yes", "name": "\u041f\u043e\u0441\u043e\u043b\u044c\u0441\u0442\u0432\u043e \u0410\u0440\u043c\u0435\u043d\u0438\u0438", "name:en": "Armenian Embassy", "name:fr": "Ambassade d'Arm\u00e9nie", "office": "diplomatic", "target": "RU", "wikidata": "Q4373965", "wikipedia": "ru:\u041f\u043e\u0441\u043e\u043b\u044c\u0441\u0442\u0432\u043e \u0410\u0440\u043c\u0435\u043d\u0438\u0438 \u0432 \u0420\u043e\u0441\u0441\u0438\u0438"}}, {"type": "node", "id": 698892169, "lat": 55.7638167, "lon": 37.6417137, "tags": {"addr:city": "\u041c\u043e\u0441\u043a\u0432\u0430", "addr:housenumber": "3\u0410", "addr:street": "\u0427\u0438\u0441\u0442\u043e\u043f\u0440\u0443\u0434\u043d\u044b\u0439 \u0431\u0443\u043b\u044c\u0432\u0430\u0440", "country": "KZ", "diplomatic": "embassy", "embassy": "yes", "name": "\u041f\u043e\u0441\u043e\u043b\u044c\u0441\u0442\u0432\u043e \u041a\u0430\u0437\u0430\u0445\u0441\u0442\u0430\u043d\u0430", "name:ca": "Ambaixada del Kazakhstan", "name:de": "Kasachische Botschaft", "name:en": "Embassy of Kazakhstan", "name:fr": "Ambassade du Kazakhstan", "name:kk": "\u049a\u0430\u0437\u0430\u049b\u0441\u0442\u0430\u043d \u0420\u0435\u0441\u043f\u0443\u0431\u043b\u0438\u043a\u0430\u0441\u044b\u043d\u044b\u04a3 \u0420\u0435\u0441\u0435\u0439 \u0424\u0435\u0434\u0435\u0440\u0430\u0446\u0438\u044f\u0441\u044b\u043d\u0434\u0430\u0493\u044b \u0415\u043b\u0448\u0456\u043b\u0456\u043a", "name:ru": "\u041f\u043e\u0441\u043e\u043b\u044c\u0441\u0442\u0432\u043e \u041a\u0430\u0437\u0430\u0445\u0441\u0442\u0430\u043d\u0430", "office": "diplomatic", "phone": "+7 495 6271809", "target": "RU", "website": "https://www.gov.kz/memleket/entities/mfa-moscow", "wikidata": "Q4374007"}}, {"type": "node", "id": 698892171, "lat": 55.7652039, "lon": 37.6410307, "tags": {"addr:city": "\u041c\u043e\u0441\u043a\u0432\u0430", "addr:housenumber": "2/5", "addr:postcode": "101000", "addr:street": "\u043f\u0435\u0440\u0435\u0443\u043b\u043e\u043a \u041e\u0433\u043e\u0440\u043e\u0434\u043d\u0430\u044f \u0421\u043b\u043e\u0431\u043e\u0434\u0430", "country": "CH", "diplomatic": "embassy", "embassy": "yes", "name": "\u041f\u043e\u0441\u043e\u043b\u044c\u0441\u0442\u0432\u043e \u0428\u0432\u0435\u0439\u0446\u0430\u0440\u0438\u0438", "name:de": "Schweizerische Botschaft", "name:en": "Embassy of Switzerland", "name:fr": "Ambassade de Suisse", "name:it": "Ambasciata di Svizzera", "name:ru": "\u041f\u043e\u0441\u043e\u043b\u044c\u0441\u0442\u0432\u043e \u0428\u0432\u0435\u0439\u0446\u0430\u0440\u0438\u0438", "office": "diplomatic", "url": "http://www.eda.admin.ch/eda/rus/home/reps/eur/vrus/embmos.html", "wikidata": "Q4374085"}}, {"type": "node", "id": 698892188, "lat": 55.7378714, "lon": 37.593152, "tags": {"addr:housenumber": "14", "addr:street": "\u0421\u0430\u0434\u043e\u0432\u0430\u044f-\u0421\u0430\u043c\u043e\u0442\u0451\u0447\u043d\u0430\u044f \u0443\u043b\u0438\u0446\u0430", "country": "LB", "diplomatic": "embassy", "embassy": "yes", "name": "\u043f\u043e\u0441\u043e\u043b\u044c\u0441\u0442\u0432\u043e \u041b\u0438\u0432\u0430\u043d\u0430", "name:ar": "\u0633\u0641\u0627\u0631\u0629 \u0644\u0628\u0646\u0627\u0646", "name:en": "Embassy of Lebanon", "name:fr": "Ambassade du Liban", "name:ru": "\u043f\u043e\u0441\u043e\u043b\u044c\u0441\u0442\u0432\u043e \u041b\u0438\u0432\u0430\u043d\u0430", "office": "diplomatic", "phone": "+7 495 694-20-83", "target": "RU", "wikidata": "Q110184784"}}, {"type": "node", "id": 698905994, "lat": 55.7194303, "lon": 37.5124425, "tags": {"country": "AO", "diplomatic": "embassy", "embassy": "yes", "name": "\u043f\u043e\u0441\u043e\u043b\u044c\u0441\u0442\u0432\u043e \u0410\u043d\u0433\u043e\u043b\u044b", "name:ca": "Ambaixada d'Angola", "name:de": "Angolanische Botschaft", "name:en": "Embassy of Angola", "name:fr": "Ambassade d'Angola", "name:pt": "Embaixada de Angola", "name:ru": "\u043f\u043e\u0441\u043e\u043b\u044c\u0441\u0442\u0432\u043e \u0410\u043d\u0433\u043e\u043b\u044b", "office": "diplomatic", "target": "RU", "wikidata": "Q4373964"}}, {"type": "node", "id": 698906178, "lat": 55.7415448, "lon": 37.5662172, "tags": {"country": "BN", "diplomatic": "embassy", "embassy": "yes", "name": "\u041f\u043e\u0441\u043e\u043b\u044c\u0441\u0442\u0432\u043e \u0411\u0440\u0443\u043d\u0435\u044f", "name:en": "Embassy of Brunei", "name:fr": "Ambassade de Brunei", "office": "diplomatic", "target": "RU"}}, {"type": "node", "id": 698906226, "lat": 55.7761763, "lon": 37.6480193, "tags": {"consulate": "yes", "contact:phone": "+7 495 6804774", "contact:website": "http://www.algerianembassy.ru", "country": "DZ", "diplomatic": "consulate", "name": "\u043f\u043e\u0441\u043e\u043b\u044c\u0441\u0442\u0432\u043e \u0410\u043b\u0436\u0438\u0440\u0430 (\u043a\u043e\u043d\u0441\u0443\u043b\u044c\u0441\u043a\u0438\u0439 \u043e\u0442\u0434\u0435\u043b)", "name:en": "embassy of Algeria (consulate department)", "name:fr": "Ambassade d'Alg\u00e9rie (d\u00e9partement consulaire)", "name:ru": "\u043f\u043e\u0441\u043e\u043b\u044c\u0441\u0442\u0432\u043e \u0410\u043b\u0436\u0438\u0440\u0430 (\u043a\u043e\u043d\u0441\u0443\u043b\u044c\u0441\u043a\u0438\u0439 \u043e\u0442\u0434\u0435\u043b)", "office": "diplomatic", "opening_hours": "Mo-Th 09:00-13:00"}}, {"type": "node", "id": 699049187, "lat": 55.7326469, "lon": 37.6212885, "tags": {"addr:housenumber": "12", "addr:street": "\u041f\u043e\u0433\u043e\u0440\u0435\u043b\u044c\u0441\u043a\u0438\u0439 \u043f\u0435\u0440\u0435\u0443\u043b\u043e\u043a", "country": "UZ", "diplomatic": "embassy", "embassy": "yes", "name": "\u043f\u043e\u0441\u043e\u043b\u044c\u0441\u0442\u0432\u043e \u0423\u0437\u0431\u0435\u043a\u0438\u0441\u0442\u0430\u043d\u0430", "name:en": "Embassy of Uzbekistan", "name:fr": "Ambassade d'Ouzb\u00e9kistan", "name:ru": "\u043f\u043e\u0441\u043e\u043b\u044c\u0441\u0442\u0432\u043e \u0423\u0437\u0431\u0435\u043a\u0438\u0441\u0442\u0430\u043d\u0430", "name:uz": "O\u02bbzbekistonning elchixonasi", "office": "diplomatic", "phone": "+7-499 230-00-76", "target": "RU", "website": "http://www.uzembassy.ru/", "wikidata": "Q4374066", "wikipedia": "ru:\u041f\u043e\u0441\u043e\u043b\u044c\u0441\u0442\u0432\u043e \u0423\u0437\u0431\u0435\u043a\u0438\u0441\u0442\u0430\u043d\u0430 \u0432 \u0420\u043e\u0441\u0441\u0438\u0438"}}, {"type": "node", "id": 699049191, "lat": 55.7337798, "lon": 37.6236567, "tags": {"addr:housenumber": "56", "addr:street": "\u0443\u043b\u0438\u0446\u0430 \u0411\u043e\u043b\u044c\u0448\u0430\u044f \u041e\u0440\u0434\u044b\u043d\u043a\u0430", "contact:website": "https://embassies.gov.il/moscow/Pages/default.aspx", "country": "IL", "diplomatic": "embassy", "embassy": "yes", "name": "\u041f\u043e\u0441\u043e\u043b\u044c\u0441\u0442\u0432\u043e \u0418\u0437\u0440\u0430\u0438\u043b\u044f", "name:ca": "Ambaixada d'Israel", "name:de": "Israelische Botschaft", "name:en": "Embassy of Israel", "name:fr": "Ambassade d'Isra\u00ebl", "name:he": "\u05e9\u05d2\u05e8\u05d9\u05e8\u05d5\u05ea \u05d9\u05e9\u05e8\u05d0\u05dc", "name:ru": "\u041f\u043e\u0441\u043e\u043b\u044c\u0441\u0442\u0432\u043e \u0418\u0437\u0440\u0430\u0438\u043b\u044f", "office": "diplomatic", "phone": "+7 (495)660 27 00", "target": "RU", "website": "https://embassies.gov.il/moscow", "wikidata": "Q2894508", "wikipedia": "ru:\u041f\u043e\u0441\u043e\u043b\u044c\u0441\u0442\u0432\u043e \u0418\u0437\u0440\u0430\u0438\u043b\u044f \u0432 \u0420\u043e\u0441\u0441\u0438\u0438"}}, {"type": "node", "id": 702748380, "lat": 55.7216968, "lon": 37.6544792, "tags": {"name": "\u041c\u041e\u0424\u041e\u041c\u0421", "office": "government"}}, {"type": "node", "id": 707882458, "lat": 55.8492408, "lon": 37.4300265, "tags": {"government": "social_services", "name": "\u0420\u0423\u0421\u0417\u041d \u0440\u0430\u0439\u043e\u043d\u0430 \u0421\u0435\u0432\u0435\u0440\u043d\u043e\u0435 \u0422\u0443\u0448\u0438\u043d\u043e", "office": "government"}}, {"type": "node", "id": 707893742, "lat": 55.8639007, "lon": 37.4320184, "tags": {"addr:city": "\u041c\u043e\u0441\u043a\u0432\u0430", "addr:country": "RU", "addr:housenumber": "1 \u043a1", "addr:street": "\u0443\u043b\u0438\u0446\u0430 \u0412\u0438\u043b\u0438\u0441\u0430 \u041b\u0430\u0446\u0438\u0441\u0430", "government": "pension_fund", "name": "\u041f\u0435\u043d\u0441\u0438\u043e\u043d\u043d\u044b\u0439 \u0444\u043e\u043d\u0434 (\u043e\u0442\u0434\u0435\u043b \u0421\u0435\u0432\u0435\u0440\u043d\u043e\u0435 \u0422\u0443\u0448\u0438\u043d\u043e)", "office": "government"}}, {"type": "node", "id": 727645668, "lat": 55.8645759, "lon": 37.4331617, "tags": {"addr:city": "\u041c\u043e\u0441\u043a\u0432\u0430", "addr:country": "RU", "addr:housenumber": "7 \u043a1", "addr:street": "\u041f\u043b\u0430\u043d\u0435\u0440\u043d\u0430\u044f \u0443\u043b\u0438\u0446\u0430", "government": "recruitment", "name": "\u0426\u0435\u043d\u0442\u0440 \u0437\u0430\u043d\u044f\u0442\u043e\u0441\u0442\u0438 \u0421\u0417\u0410\u041e (\u043e\u0442\u0434\u0435\u043b \u0422\u0443\u0448\u0438\u043d\u0441\u043a\u0438\u0439)", "office": "government", "opening_hours": "Mo-Th 09:00-17:00; Fr 09:00-16:45"}}, {"type": "node", "id": 764078642, "lat": 55.6559334, "lon": 37.3927246, "tags": {"contact:phone": "+7 495 4350068", "government": "register_office", "name": "\u0421\u043e\u043b\u043d\u0446\u0435\u0432\u0441\u043a\u0438\u0439 \u043e\u0442\u0434\u0435\u043b \u0417\u0410\u0413\u0421", "name:en": "Civil Status Registration Office of Solntsevo District", "office": "government", "official_name": "\u0421\u043e\u043b\u043d\u0446\u0435\u0432\u0441\u043a\u0438\u0439 \u043e\u0442\u0434\u0435\u043b \u0417\u0410\u0413\u0421", "opening_hours": "Tu-Sa 09:00-13:30,15:00-17:30", "source": "zags.mos.ru"}}, {"type": "node", "id": 764084083, "lat": 55.6567568, "lon": 37.3896569, "tags": {"contact:website": "http://www.pfrf.ru", "government": "pension_fund", "name": "\u0423\u043f\u0440\u0430\u0432\u043b\u0435\u043d\u0438\u0435 \u21164 \u0413\u043b\u0430\u0432\u043d\u043e\u0433\u043e \u0443\u043f\u0440\u0430\u0432\u043b\u0435\u043d\u0438\u044f \u21162 \u041f\u0435\u043d\u0441\u0438\u043e\u043d\u043d\u043e\u0433\u043e \u0424\u043e\u043d\u0434\u0430 \u0420\u043e\u0441\u0441\u0438\u0438", "office": "government", "opening_hours": "Mo-We 09:00-13:00,13:30-17:00; Fr 09:00-13:00,13:30-16:00"}}, {"type": "node", "id": 765089053, "lat": 55.6657486, "lon": 37.4864806, "tags": {"check_date": "2022-06-04", "name": "\u0413\u0430\u0437\u043f\u0440\u043e\u043c", "office": "company"}}, {"type": "node", "id": 775957750, "lat": 55.7508393, "lon": 37.7081449, "tags": {"name": "\u0443\u043f\u0440\u0430\u0432\u043b\u0435\u043d\u0438\u0435 \u0413\u043e\u0441\u0440\u0430\u0434\u0438\u043e\u043a\u043e\u043c\u043f\u043b\u0435\u043a\u0442", "office": "government"}}, {"type": "node", "id": 794595322, "lat": 55.8037876, "lon": 37.5285776, "tags": {"alt_name": "\u0410\u0421\u041c\u0410\u041f", "name": "\u0410\u0441\u0441\u043e\u0446\u0438\u0430\u0446\u0438\u044f \u043c\u0435\u0436\u0434\u0443\u043d\u0430\u0440\u043e\u0434\u043d\u044b\u0445 \u0430\u0432\u0442\u043e\u043c\u043e\u0431\u0438\u043b\u044c\u043d\u044b\u0445 \u043f\u0435\u0440\u0435\u0432\u043e\u0437\u0447\u0438\u043a\u043e\u0432", "office": "company"}}, {"type": "node", "id": 797196577, "lat": 55.7640154, "lon": 37.6168294, "tags": {"description": "\u0422\u0435\u043b: (+7 495) 933-08-10", "name": "\u041c\u0435\u0436\u0434\u0443\u043d\u0430\u0440\u043e\u0434\u043d\u0430\u044f \u043e\u0440\u0433\u0430\u043d\u0438\u0437\u0430\u0446\u0438\u044f \u0442\u0440\u0443\u0434\u0430 (\u041c\u041e\u0422) \u0432 \u0420\u0424", "office": "yes"}}, {"type": "node", "id": 797201499, "lat": 55.7592077, "lon": 37.6025124, "tags": {"contact:phone": "+7 495 7872103", "contact:website": "http://ohchr.ru/", "name": "\u041e\u0444\u0438\u0441 \u0421\u0442\u0430\u0440\u0448\u0435\u0433\u043e \u0441\u043e\u0432\u0435\u0442\u043d\u0438\u043a\u0430 \u043f\u043e \u043f\u0440\u0430\u0432\u0430\u043c \u0447\u0435\u043b\u043e\u0432\u0435\u043a\u0430\u043f\u0440\u0438 \u0441\u0438\u0441\u0442\u0435\u043c\u0435 \u041e\u041e\u041d \u0432 \u0420\u043e\u0441\u0441\u0438\u0439\u0441\u043a\u043e\u0439 \u0424\u0435\u0434\u0435\u0440\u0430\u0446\u0438\u0438", "office": "company"}}, {"type": "node", "id": 798569019, "lat": 55.7340257, "lon": 37.8340976, "tags": {"name": "\u0423\u043f\u0440\u0430\u0432\u043b\u044f\u044e\u0449\u0430\u044f \u043e\u0440\u0433\u0430\u043d\u0438\u0437\u0449\u0430\u0446\u0438\u044f \"\u0414\u043e\u0440\u043c\u0435\u0440\"", "office": "ngo"}}, {"type": "node", "id": 798569021, "lat": 55.7200421, "lon": 37.8185836, "tags": {"name": "\u0418\u043d\u0436\u0435\u043d\u0435\u0440\u043d\u0430\u044f \u0441\u043b\u0443\u0436\u0431\u0430 \u0440\u0430\u0439\u043e\u043d\u0430 \u0412\u0435\u0448\u043d\u044f\u043a\u0438", "office": "property_management"}}, {"type": "node", "id": 798569022, "lat": 55.7201839, "lon": 37.8180984, "tags": {"name": "\u0423\u043f\u0440\u0430\u0432\u043b\u044f\u044e\u0449\u0430\u044f \u043e\u0440\u0433\u0430\u043d\u0438\u0437\u0430\u0446\u0438\u044f \u0413\u0423\u041f \"\u0414\u0415\u0417 \u0440\u0430\u0439\u043e\u043d\u0430 \u0412\u0435\u0448\u043d\u044f\u043a\u0438\"", "office": "property_management"}}, {"type": "node", "id": 798569023, "lat": 55.7345522, "lon": 37.8335737, "tags": {"addr:city": "\u041c\u043e\u0441\u043a\u0432\u0430", "addr:housenumber": "17\u0413", "addr:street": "\u0412\u0435\u0448\u043d\u044f\u043a\u043e\u0432\u0441\u043a\u0430\u044f \u0443\u043b\u0438\u0446\u0430", "alt_name": "\u041c\u0424\u0426 \u0412\u0435\u0448\u043d\u044f\u043a\u0438", "amenity": "public_service", "brand": "\u041c\u043e\u0438 \u0434\u043e\u043a\u0443\u043c\u0435\u043d\u0442\u044b", "contact:phone": "+7 499 9404292", "contact:website": "https://md.mos.ru", "description": "\u0423\u0442\u043e\u0447\u043d\u044f\u0442\u044c \u0440\u0435\u0436\u0438\u043c \u0440\u0430\u0431\u043e\u0442\u044b - \u043f\u0430\u0441\u043f\u043e\u0440\u0442\u043d\u043e\u0433\u043e \u0441\u0442\u043e\u043b\u0430, \u0423\u0424\u041c\u0421, \u041f\u0424\u0420, \u0420\u043e\u0441\u0440\u0435\u0435\u0441\u0442\u0440\u0430", "government": "public_service", "name": "\u041c\u043d\u043e\u0433\u043e\u0444\u0443\u043d\u043a\u0446\u0438\u043e\u043d\u0430\u043b\u044c\u043d\u044b\u0439 \u0446\u0435\u043d\u0442\u0440 \u043f\u0440\u0435\u0434\u043e\u0441\u0442\u0430\u0432\u043b\u0435\u043d\u0438\u044f \u0433\u043e\u0441\u0443\u0434\u0430\u0440\u0441\u0442\u0432\u0435\u043d\u043d\u044b\u0445 \u0438 \u043c\u0443\u043d\u0438\u0446\u0438\u043f\u0430\u043b\u044c\u043d\u044b\u0445 \u0443\u0441\u043b\u0443\u0433 \u0412\u0435\u0448\u043d\u044f\u043a\u0438", "office": "government", "opening_hours": "Mo-Fr 08:00-20:00; Sa 09:00-15:45", "short_name": "\u041c\u0424\u0426"}}, {"type": "node", "id": 798569024, "lat": 55.736297, "lon": 37.8291087, "tags": {"name": "\u0423\u043f\u0440\u0430\u0432\u0430 \u0440\u0430\u0439\u043e\u043d\u0430 \u0412\u0435\u0448\u043d\u044f\u043a\u0438", "office": "government"}}, {"type": "node", "id": 803662802, "lat": 55.7385638, "lon": 37.5454036, "tags": {"lawyer": "notary", "office": "lawyer"}}, {"type": "node", "id": 813400376, "lat": 55.7061783, "lon": 37.6193112, "tags": {"brand:wikidata": "Q4200631", "brand:wikipedia": "ru:\u0418\u043d\u0433\u043e\u0441\u0441\u0442\u0440\u0430\u0445", "contact:email": "ingos@ingos.ru", "contact:phone": "+7 499 2132394", "contact:website": "https://www.ingos.ru/", "name": "\u0418\u043d\u0433\u043e\u0441\u0441\u0442\u0440\u0430\u0445", "office": "insurance", "opening_hours": "Fr 09:00-19:00;Mo-Th 09:00-20:00;Sa 10:00-18:00"}}, {"type": "node", "id": 835084065, "lat": 55.8078145, "lon": 37.4080419, "tags": {"brand": "\u0421\u0432\u044f\u0437\u043d\u043e\u0439", "brand:en": "Svyaznoy", "brand:wikidata": "Q65371", "brand:wikipedia": "en:Svyaznoy", "contact:phone": "+7 800 2220888", "contact:website": "http://www.svyaznoy.ru/", "name": "\u0421\u0432\u044f\u0437\u043d\u043e\u0439", "name:en": "Svyaznoy", "office": "telecommunication", "opening_hours": "09:00-22:00", "operator": "\u0421\u0432\u044f\u0437\u043d\u043e\u0439", "shop": "mobile_phone"}}, {"type": "node", "id": 838569813, "lat": 55.7414377, "lon": 37.6063195, "tags": {"addr:housenumber": "9", "addr:street": "\u041a\u0443\u0440\u0441\u043e\u0432\u043e\u0439 \u043f\u0435\u0440\u0435\u0443\u043b\u043e\u043a", "country": "no ISO-3166-1 alpha-2 code available", "diplomatic": "embassy", "embassy": "yes", "name": "\u041f\u043e\u0441\u043e\u043b\u044c\u0441\u0442\u0432\u043e \u042e\u0436\u043d\u043e\u0439 \u041e\u0441\u0435\u0442\u0438\u0438", "name:de": "Botschaft von S\u00fcdossetien", "name:en": "Embassy of South Ossetia", "name:fr": "Ambassade d'Oss\u00e9tie du Sud", "name:ru": "\u041f\u043e\u0441\u043e\u043b\u044c\u0441\u0442\u0432\u043e \u042e\u0436\u043d\u043e\u0439 \u041e\u0441\u0435\u0442\u0438\u0438", "office": "diplomatic", "phone": "+7 495 644-27-57", "target": "RU", "url": "http://osembassy.ru", "website": "https://www.osembassy.org/", "wikidata": "Q4374094", "wikipedia": "ru:\u041f\u043e\u0441\u043e\u043b\u044c\u0441\u0442\u0432\u043e \u042e\u0436\u043d\u043e\u0439 \u041e\u0441\u0435\u0442\u0438\u0438 \u0432 \u0420\u043e\u0441\u0441\u0438\u0438"}}, {"type": "node", "id": 841946677, "lat": 55.8040123, "lon": 37.9356202, "tags": {"name": "\u0420\u0435\u0434\u0430\u043a\u0446\u0438\u044f \u0420\u0430\u0434\u0438\u043e-\u0418\u043d\u0444\u043e\u0440\u043c", "office": "telecommunication"}}, {"type": "node", "id": 846812374, "lat": 55.7437458, "lon": 37.5874667, "tags": {"addr:housenumber": "7", "addr:postcode": "119034", "addr:street": "\u0414\u0435\u043d\u0435\u0436\u043d\u044b\u0439 \u043f\u0435\u0440\u0435\u0443\u043b\u043e\u043a", "country": "CL", "diplomatic": "embassy", "embassy": "yes", "name": "\u043f\u043e\u0441\u043e\u043b\u044c\u0441\u0442\u0432\u043e \u0427\u0438\u043b\u0438", "name:de": "Chilenische Botschaft", "name:en": "Embassy of Chile", "name:es": "Embajada de Chile", "name:fr": "Ambassade du Chili", "name:ru": "\u043f\u043e\u0441\u043e\u043b\u044c\u0441\u0442\u0432\u043e \u0427\u0438\u043b\u0438", "office": "diplomatic", "target": "RU", "wikidata": "Q4374084", "wikipedia": "ru:\u041f\u043e\u0441\u043e\u043b\u044c\u0441\u0442\u0432\u043e \u0427\u0438\u043b\u0438 \u0432 \u0420\u043e\u0441\u0441\u0438\u0438"}}, {"type": "node", "id": 849944128, "lat": 55.508073, "lon": 37.5665839, "tags": {"email": "rp61@to50reg.ru", "name": "\u0429\u0435\u0440\u0431\u0438\u043d\u0441\u043a\u0438\u0439 \u043e\u0442\u0434\u0435\u043b \u0420\u043e\u0441\u0440\u0435\u0435\u0441\u0442\u0440\u0430", "office": "government", "official_name": "\u0429\u0435\u0440\u0431\u0438\u043d\u0441\u043a\u0438\u0439 \u043e\u0442\u0434\u0435\u043b \u0443\u043f\u0440\u0430\u0432\u043b\u0435\u043d\u0438\u044f \u0424\u0435\u0434\u0435\u0440\u0430\u043b\u044c\u043d\u043e\u0439 \u0441\u043b\u0443\u0436\u0431\u044b \u0433\u043e\u0441\u0443\u0434\u0430\u0440\u0441\u0442\u0432\u0435\u043d\u043d\u043e\u0439 \u0440\u0435\u0433\u0438\u0441\u0442\u0440\u0430\u0446\u0438\u0438, \u043a\u0430\u0434\u0430\u0441\u0442\u0440\u0430 \u0438 \u043a\u0430\u0440\u0442\u043e\u0433\u0440\u0430\u0444\u0438\u0438 \u043f\u043e \u041c\u043e\u0441\u043a\u043e\u0432\u0441\u043a\u043e\u0439 \u043e\u0431\u043b\u0430\u0441\u0442\u0438", "website": "http://www.to50.rosreestr.ru"}}, {"type": "node", "id": 850774994, "lat": 55.8781202, "lon": 37.6990442, "tags": {"contact:facebook": "https://www.facebook.com/nalog.ru", "contact:twitter": "https://twitter.com/nalog__ru", "contact:vk": "https://vk.com/nalog__ru", "contact:website": "https://www.nalog.ru", "government": "tax", "name": "\u0418\u043d\u0441\u043f\u0435\u043a\u0446\u0438\u044f \u0444\u0435\u0434\u0435\u0440\u0430\u043b\u044c\u043d\u043e\u0439 \u043d\u0430\u043b\u043e\u0433\u043e\u0432\u043e\u0439 \u0441\u043b\u0443\u0436\u0431\u044b \u211616 \u043f\u043e \u0433. \u041c\u043e\u0441\u043a\u0432\u0435", "office": "government"}}, {"type": "node", "id": 856681972, "lat": 55.5101378, "lon": 37.5650255, "tags": {"government": "archive", "name": "\u0410\u0440\u0445\u0438\u0432", "office": "government"}}, {"type": "node", "id": 856681975, "lat": 55.5102556, "lon": 37.5651677, "tags": {"government": "register_office", "name": "\u0417\u0410\u0413\u0421", "office": "government"}}, {"type": "node", "id": 872162013, "lat": 55.9938941, "lon": 37.186403, "tags": {"addr:city": "\u0417\u0435\u043b\u0435\u043d\u043e\u0433\u0440\u0430\u0434", "addr:country": "RU", "addr:housenumber": "\u043a1101\u0410", "addr:region": "\u041c\u043e\u0441\u043a\u0432\u0430", "brand": "\u041c\u0422\u0421", "brand:wikidata": "Q1368919", "brand:wikipedia": "ru:\u041c\u0422\u0421 (\u043a\u043e\u043c\u043f\u0430\u043d\u0438\u044f)", "comment": "\u0421\u0430\u043b\u043e\u043d-\u043c\u0430\u0433\u0430\u0437\u0438\u043d \u041c\u0422\u0421 \u0432 \u0417\u0435\u043b\u0435\u043d\u043e\u0433\u0440\u0430\u0434\u0435", "contact:facebook": "https://www.facebook.com/mts", "contact:ok": "https://ok.ru/mts", "contact:phone": "+7 800 2500890", "contact:twitter": "https://twitter.com/ru_mts", "contact:vk": "https://vk.com/mts", "contact:website": "https://moskva.mts.ru", "is_in:neighbourhood": "11\u0430 \u043c\u0438\u043a\u0440\u043e\u0440\u0430\u0439\u043e\u043d", "name": "\u041c\u0422\u0421", "name:de": "MTS", "name:en": "MTS", "name:ru": "\u041c\u0422\u0421", "office": "telecommunication", "opening_hours": "Mo-Fr 09:00-20:00;Sa-Su 10:00-19:00", "shop": "mobile_phone"}}, {"type": "node", "id": 890161391, "lat": 55.6541841, "lon": 37.3898612, "tags": {"lawyer": "notary", "name": "\u041d\u043e\u0442\u0430\u0440\u0438\u0443\u0441", "office": "lawyer"}}, {"type": "node", "id": 890164745, "lat": 55.651863, "lon": 37.395805, "tags": {"lawyer": "notary", "name": "\u041d\u043e\u0442\u0430\u0440\u0438\u0443\u0441", "office": "lawyer", "toilets:wheelchair": "no", "wheelchair": "limited"}}, {"type": "node", "id": 893134126, "lat": 55.6075422, "lon": 37.7083146, "tags": {"name": "\u0422\u0440\u0443\u0434\u043e\u0432\u0430\u044f \u0438\u043d\u0441\u043f\u0435\u043a\u0446\u0438\u044f", "office": "government"}}, {"type": "node", "id": 898035590, "lat": 55.7178569, "lon": 37.4159503, "tags": {"function": "retail", "name": "\u0412\u0435\u043b\u043d\u0435\u0442", "office": "telecommunication"}}, {"type": "node", "id": 913829091, "lat": 55.8977024, "lon": 37.589436, "tags": {"brand": "\u0421\u0432\u044f\u0437\u043d\u043e\u0439", "contact:facebook": "https://www.facebook.com/svyaznoy.ru", "contact:phone": "+7 800 2220888", "contact:vk": "https://vk.com/club11445015", "contact:website": "https://www.svyaznoy.ru/", "name": "\u0421\u0432\u044f\u0437\u043d\u043e\u0439", "name:ru": "\u0421\u0432\u044f\u0437\u043d\u043e\u0439", "office": "telecommunication", "opening_hours": "Mo-Fr 09:00-22:00;Sa-Su 09:00-21:00", "operator:wikidata": "Q65371", "operator:wikipedia": "ru:\u0421\u0432\u044f\u0437\u043d\u043e\u0439 (\u043a\u043e\u043c\u043f\u0430\u043d\u0438\u044f)", "shop": "mobile_phone"}}, {"type": "node", "id": 914269753, "lat": 55.7960799, "lon": 37.79957, "tags": {"brand": "\u0411\u0438\u043b\u0430\u0439\u043d", "brand:wikidata": "Q402880", "brand:wikipedia": "ru:\u0411\u0438\u043b\u0430\u0439\u043d", "contact:facebook": "https://www.facebook.com/Beelinerus", "contact:instagram": "https://www.instagram.com/beelinerus", "contact:ok": "https://ok.ru/beeline", "contact:phone": "+7 800 7000611", "contact:twitter": "https://twitter.com/Beeline_RUS", "contact:vk": "https://vk.com/beeline", "contact:website": "https://beeline.ru", "contact:youtube": "https://www.youtube.com/user/beelineru", "name": "\u0411\u0438\u043b\u0430\u0439\u043d", "name:en": "Beeline", "name:ru": "\u0411\u0438\u043b\u0430\u0439\u043d", "office": "telecommunication", "opening_hours": "Mo-Su 09:00-21:00", "shop": "mobile_phone"}}, {"type": "node", "id": 918416777, "lat": 55.8632905, "lon": 37.430812, "tags": {"name": "\u041e\u0442\u0434\u0435\u043b \u0440\u0435\u0433\u0438\u0441\u0442\u0440\u0430\u0446\u0438\u0438 \u043f\u0440\u0430\u0432 \u043d\u0430 \u043d\u0435\u0434\u0432\u0438\u0436\u0438\u043c\u043e\u0441\u0442\u044c \u043f\u043e \u0421\u0417\u0410\u041e \u0433. \u041c\u043e\u0441\u043a\u0432\u044b", "office": "government"}}, {"type": "node", "id": 920582529, "lat": 55.7997227, "lon": 37.7939924, "tags": {"office": "notary"}}, {"type": "node", "id": 921902301, "lat": 55.7971081, "lon": 37.796059, "tags": {"brand": "\u041c\u0435\u0433\u0430\u0424\u043e\u043d", "brand:wikidata": "Q1720713", "brand:wikipedia": "ru:\u041c\u0435\u0433\u0430\u0444\u043e\u043d (\u043a\u043e\u043c\u043f\u0430\u043d\u0438\u044f)", "contact:facebook": "https://www.facebook.com/MegaFon.ru", "contact:habrahabr": "https://habrahabr.ru/company/megafon", "contact:ok": "https://ok.ru/megafon", "contact:phone": "+7 800 5500500", "contact:twitter": "https://twitter.com/megafonru", "contact:vk": "https://vk.com/megafon", "contact:website": "https://megafon.ru", "contact:youtube": "https://www.youtube.com/user/MegaFonTV", "name": "\u041c\u0435\u0433\u0430\u0424\u043e\u043d", "name:en": "MegaFon", "name:ru": "\u041c\u0435\u0433\u0430\u0424\u043e\u043d", "office": "telecommunication", "operator:wikidata": "Q1720713", "operator:wikipedia": "ru:\u041c\u0435\u0433\u0430\u0444\u043e\u043d (\u043a\u043e\u043c\u043f\u0430\u043d\u0438\u044f)", "shop": "mobile_phone"}}, {"type": "node", "id": 925170722, "lat": 55.736572, "lon": 37.4792303, "tags": {"government": "education", "name": "\u041a\u043e\u043c\u0438\u0441\u0441\u0438\u044f \u043f\u043e \u043a\u043e\u043c\u043f\u043b\u0435\u043a\u0442\u043e\u0432\u0430\u043d\u0438\u044e \u0434\u043e\u0448\u043a\u043e\u043b\u044c\u043d\u044b\u0445 \u043e\u0431\u0440\u0430\u0437\u043e\u0432\u0430\u0442\u0435\u043b\u044c\u043d\u044b\u0445 \u0443\u0447\u0440\u0435\u0436\u0434\u0435\u043d\u0438\u0439 \u0440\u0430\u0439\u043e\u043d\u0430 \u0424\u0438\u043b\u0451\u0432\u0441\u043a\u0438\u0439 \u041f\u0430\u0440\u043a", "office": "government"}}, {"type": "node", "id": 926648647, "lat": 55.8631613, "lon": 37.4308464, "tags": {"name": "\u0421\u043f\u0435\u0446\u0438\u0430\u043b\u0438\u0437\u0438\u0440\u043e\u0432\u0430\u043d\u043d\u043e\u0435 \u0443\u043f\u0440\u0430\u0432\u043b\u0435\u043d\u0438\u0435 \u043f\u043e \u0440\u0435\u043c\u043e\u043d\u0442\u0443 \u0438 \u044d\u043a\u0441\u043f\u043b\u0443\u0430\u0442\u0430\u0446\u0438\u0438 \u043a\u043e\u043b\u043b\u0435\u043a\u0442\u043e\u0440\u043e\u0432 \u0438 \u0432\u043e\u0434\u043e\u0441\u0442\u043e\u043a\u043e\u0432 (\u0443\u0447\u0430\u0441\u0442\u043e\u043a \u21162)", "office": "company"}}, {"type": "node", "id": 926649221, "lat": 55.8638777, "lon": 37.4262652, "tags": {"name": "\u0423\u043f\u0440\u0430\u0432\u043b\u0435\u043d\u0438\u0435 \u043a\u0430\u0431\u0435\u043b\u044c\u043d\u044b\u0445 \u0441\u0435\u0442\u0435\u0439 \u0421\u0435\u0432\u0435\u0440\u043e-\u0417\u0430\u043f\u0430\u0434\u043d\u043e\u0433\u043e \u043e\u043a\u0440\u0443\u0433\u0430 (8 \u0440\u0430\u0439\u043e\u043d)", "office": "company"}}, {"type": "node", "id": 926927251, "lat": 55.8641645, "lon": 37.4267669, "tags": {"contact:phone": "+7 495 4966161", "contact:website": "http://rgs.ru", "name": "\u0420\u043e\u0441\u0433\u043e\u0441\u0441\u0442\u0440\u0430\u0445", "office": "insurance", "official_name": "\u0422\u0443\u0448\u0438\u043d\u043e"}}, {"type": "node", "id": 926954558, "lat": 55.8823124, "lon": 37.6344061, "tags": {"amenity": "events_venue", "name": "\u0414\u0435\u0442\u0432\u0438\u043b\u044c", "office": "company"}}, {"type": "node", "id": 928439395, "lat": 55.6509746, "lon": 37.3970764, "tags": {"admin_level": "2", "alt_name": "\u0412\u043e\u0435\u043d\u043a\u043e\u043c\u0430\u0442 \u0440\u0430\u0439\u043e\u043d\u0430 \u0421\u043e\u043b\u043d\u0446\u0435\u0432\u043e", "military": "office", "name": "\u041e\u0431\u044a\u0435\u0434\u0438\u043d\u0451\u043d\u043d\u044b\u0439 \u0432\u043e\u0435\u043d\u043d\u044b\u0439 \u043a\u043e\u043c\u0438\u0441\u0441\u0430\u0440\u0438\u0430\u0442 \u0421\u043e\u043b\u043d\u0446\u0435\u0432\u0441\u043a\u043e\u0433\u043e \u0440\u0430\u0439\u043e\u043d\u0430", "name:en": "Military Registration and Enlistment Office of Solntsevo District", "office": "government", "wheelchair": "no"}}, {"type": "node", "id": 930534361, "lat": 55.7351059, "lon": 37.4181222, "tags": {"contact:facebook": "https://www.facebook.com/nalog.ru", "contact:twitter": "https://twitter.com/nalog__ru", "contact:vk": "https://vk.com/nalog__ru", "contact:website": "https://www.nalog.ru", "government": "tax", "name": "\u0418\u043d\u0441\u043f\u0435\u043a\u0446\u0438\u044f \u0424\u0435\u0434\u0435\u0440\u0430\u043b\u044c\u043d\u043e\u0439 \u043d\u0430\u043b\u043e\u0433\u043e\u0432\u043e\u0439 \u0441\u043b\u0443\u0436\u0431\u044b \u0420\u043e\u0441\u0441\u0438\u0438 \u2116 31", "office": "government"}}, {"type": "node", "id": 935024761, "lat": 55.858753, "lon": 37.4297682, "tags": {"name": "\u0426\u0435\u043d\u0442\u0440 \u043c\u043e\u043d\u0438\u0442\u043e\u0440\u0438\u043d\u0433\u0430 \u0440\u0430\u0439\u043e\u043d\u043e\u0432 \u0421\u0435\u0432\u0435\u0440\u043d\u043e\u0435 \u0438 \u042e\u0436\u043d\u043e\u0435 \u0422\u0443\u0448\u0438\u043d\u043e", "office": "government"}}, {"type": "node", "id": 935064027, "lat": 55.8593975, "lon": 37.4306752, "tags": {"name": "\u0426\u0435\u043d\u0442\u0440 \u043f\u0440\u0430\u0432\u043e\u0432\u043e\u0439 \u0438 \u0438\u043d\u0444\u043e\u0440\u043c\u0430\u0446\u0438\u043e\u043d\u043d\u043e\u0439 \u043f\u043e\u043c\u043e\u0449\u0438 \u043c\u043e\u043b\u043e\u0434\u0435\u0436\u0438 \"\u0412\u044b\u0431\u043e\u0440\"", "office": "government"}}, {"type": "node", "id": 937260445, "lat": 55.8727745, "lon": 37.6832264, "tags": {"contact:email": "office@interlan.ru", "contact:icq": "78624245", "contact:phone": "+7 495 7862424", "contact:website": "http://interlan.ru/", "floor": "1", "int_name": "InterLAN Communications", "name": "\u0418\u043d\u0442\u0435\u0440\u043b\u0430\u043d \u041a\u043e\u043c\u043c\u0443\u043d\u0438\u043a\u0435\u0439\u0448\u043d\u0441", "office": "telecommunication", "opening_hours": "Mo-Fr 11:00-20:00; Sa-Su 11:00-19:00"}}, {"type": "node", "id": 938471182, "lat": 55.8523549, "lon": 37.4470131, "tags": {"addr:housenumber": "14", "addr:street": "\u0425\u0438\u043c\u043a\u0438\u043d\u0441\u043a\u0438\u0439 \u0431\u0443\u043b\u044c\u0432\u0430\u0440", "government": "register_office", "name": "\u0422\u0443\u0448\u0438\u043d\u0441\u043a\u0438\u0439 \u043e\u0442\u0434\u0435\u043b \u0417\u0410\u0413\u0421", "name:en": "Civil Status Registration Office of Tushino District", "office": "government", "opening_hours": "Tu-Sa 09:00-13:30,15:00-17:30", "phone": "+7 495 4932595", "website": "http://zags.mgportal.ru/", "wikidata": "Q745221", "wikipedia": "ru:\u0417\u0410\u0413\u0421"}}, {"type": "node", "id": 938526782, "lat": 55.7317935, "lon": 37.5486456, "tags": {"brand": "\u0421\u043e\u0433\u043b\u0430\u0441\u0438\u0435", "brand:en": "Soglasie", "brand:ru": "\u0421\u043e\u0433\u043b\u0430\u0441\u0438\u0435", "brand:wikidata": "Q4426689", "brand:wikipedia": "ru:\u0421\u043e\u0433\u043b\u0430\u0441\u0438\u0435 (\u043a\u043e\u043c\u043f\u0430\u043d\u0438\u044f)", "name": "\u0421\u043e\u0433\u043b\u0430\u0441\u0438\u0435", "name:en": "Soglasie", "name:ru": "\u0421\u043e\u0433\u043b\u0430\u0441\u0438\u0435", "office": "insurance"}}, {"type": "node", "id": 941959331, "lat": 55.6354721, "lon": 37.2114401, "tags": {"name": "\u0416\u041a\u0425", "office": "property_management"}}, {"type": "node", "id": 942448646, "lat": 55.828408, "lon": 37.4512661, "tags": {"name": "\u0420\u0415\u0421\u041e-\u0413\u0430\u0440\u0430\u043d\u0442\u0438\u044f", "office": "insurance"}}, {"type": "node", "id": 942482697, "lat": 55.8305596, "lon": 37.4535356, "tags": {"name": "\u0421\u043e\u0433\u043b\u0430\u0441\u0438\u0435", "office": "insurance"}}, {"type": "node", "id": 942567308, "lat": 55.8300829, "lon": 37.4489438, "tags": {"name": "\u0423\u043f\u0440\u0430\u0432\u043b\u0435\u043d\u0438\u0435 \u0437\u0434\u0440\u0430\u0432\u043e\u043e\u0445\u0440\u0430\u043d\u0435\u043d\u0438\u044f \u0421\u0417\u0410\u041e \u0433. \u041c\u043e\u0441\u043a\u0432\u044b", "office": "government"}}, {"type": "node", "id": 945022662, "lat": 55.4304714, "lon": 37.5474844, "tags": {"contact:facebook": "https://www.facebook.com/nalog.ru", "contact:twitter": "https://twitter.com/nalog__ru", "contact:vk": "https://vk.com/nalog__ru", "contact:website": "http://www.r50.nalog.ru/str.php?topic=imns_50_74", "government": "tax", "name": "\u041c\u0435\u0436\u0440\u0430\u0439\u043e\u043d\u043d\u0430\u044f \u0438\u043d\u0441\u043f\u0435\u043a\u0446\u0438\u044f \u0424\u041d\u0421 \u0420\u043e\u0441\u0441\u0438\u0438 \u21165 \u043f\u043e \u041c\u043e\u0441\u043a\u043e\u0432\u0441\u043a\u043e\u0439 \u043e\u0431\u043b\u0430\u0441\u0442\u0438", "office": "government"}}, {"type": "node", "id": 947013372, "lat": 55.8630656, "lon": 37.6062183, "tags": {"name": "\u0418\u041d\u041a\u041e\u041c", "office": "estate_agent"}}, {"type": "node", "id": 954910738, "lat": 55.6897778, "lon": 37.5354141, "tags": {"name": "\u041c\u0438\u043d\u0438\u0441\u0442\u0435\u0440\u0441\u0442\u0432\u043e \u0440\u0435\u0433\u0438\u043e\u043d\u0430\u043b\u044c\u043d\u043e\u0433\u043e \u0440\u0430\u0437\u0432\u0438\u0442\u0438\u044f", "office": "government"}}, {"type": "node", "id": 954912010, "lat": 55.6887935, "lon": 37.5335948, "tags": {"name": "\u0413\u0430\u0437\u043f\u0440\u043e\u043c", "office": "company"}}, {"type": "node", "id": 954912352, "lat": 55.6888522, "lon": 37.5399604, "tags": {"government": "recruitment", "name": "\u0426\u0435\u043d\u0442\u0440 \u0437\u0430\u043d\u044f\u0442\u043e\u0441\u0442\u0438 \u043d\u0430\u0441\u0435\u043b\u0435\u043d\u0438\u044f", "office": "government"}}, {"type": "node", "id": 956231549, "lat": 55.7646985, "lon": 37.5951558, "tags": {"name": "\u041f\u0440\u043e\u0438\u0437\u0432\u043e\u0434\u0441\u0442\u0432\u0435\u043d\u043d\u043e \u041a\u043e\u043c\u043c\u0435\u0440\u0447\u0435\u0441\u043a\u0430\u044f \u0414\u0438\u0440\u0435\u043a\u0446\u0438\u044f", "office": "company", "phone": "+7 495 6946590", "website": "http://pkd-mos.ru/"}}, {"type": "node", "id": 956433457, "lat": 55.6878688, "lon": 37.5388913, "tags": {"name": "\u041c\u0427\u0421 \u0420\u043e\u0441\u0441\u0438\u0438", "office": "government"}}, {"type": "node", "id": 957162324, "lat": 55.5485977, "lon": 37.542511, "tags": {"brand": "\u041c\u0422\u0421", "brand:wikidata": "Q1368919", "brand:wikipedia": "ru:\u041c\u0422\u0421 (\u043a\u043e\u043c\u043f\u0430\u043d\u0438\u044f)", "contact:facebook": "https://www.facebook.com/mts", "contact:ok": "https://ok.ru/mts", "contact:phone": "+7 800 2500890", "contact:twitter": "https://twitter.com/ru_mts", "contact:vk": "https://vk.com/mts", "contact:website": "https://moskva.mts.ru/", "name": "\u041c\u0422\u0421", "name:en": "MTS", "name:ru": "\u041c\u0422\u0421", "office": "telecommunication", "opening_hours": "Mo-Su 09:00-21:00", "operator": "\u041c\u0422\u0421", "shop": "mobile_phone"}}, {"type": "node", "id": 960519756, "lat": 55.5105989, "lon": 37.5634772, "tags": {"brand": "\u041c\u0422\u0421", "brand:wikidata": "Q1368919", "brand:wikipedia": "ru:\u041c\u0422\u0421 (\u043a\u043e\u043c\u043f\u0430\u043d\u0438\u044f)", "contact:facebook": "https://www.facebook.com/mts", "contact:ok": "https://ok.ru/mts", "contact:phone": "+7 800 2500890", "contact:twitter": "https://twitter.com/ru_mts", "contact:vk": "https://vk.com/mts", "contact:website": "https://moskva.mts.ru/", "name": "\u041c\u0422\u0421", "name:en": "MTS", "name:ru": "\u041c\u0422\u0421", "office": "telecommunication", "opening_hours": "Mo-Fr 09:00-20:00;Sa-Su 10:00-19:00", "operator": "\u041c\u0422\u0421", "shop": "mobile_phone"}}, {"type": "node", "id": 961585049, "lat": 55.7297268, "lon": 36.8550568, "tags": {"brand": "\u041c\u0422\u0421", "brand:wikidata": "Q1368919", "brand:wikipedia": "ru:\u041c\u0422\u0421 (\u043a\u043e\u043c\u043f\u0430\u043d\u0438\u044f)", "contact:facebook": "https://www.facebook.com/mts", "contact:ok": "https://ok.ru/mts", "contact:phone": "+7 800 2500890", "contact:twitter": "https://twitter.com/ru_mts", "contact:vk": "https://vk.com/mts", "contact:website": "https://shop.mts.ru", "name": "\u041c\u0422\u0421", "name:en": "MTS", "name:ru": "\u041c\u0422\u0421", "office": "telecommunication", "shop": "mobile_phone", "website": "https://mts.ru/"}}, {"type": "node", "id": 961585050, "lat": 55.7298755, "lon": 36.855909, "tags": {"contact:phone": "+7 800 2220888", "contact:website": "http://www.svyaznoy.ru/", "name": "\u0421\u0432\u044f\u0437\u043d\u043e\u0439", "name:ru": "\u0421\u0432\u044f\u0437\u043d\u043e\u0439", "office": "telecommunication", "opening_hours": "Mo-Su 09:00-21:00", "shop": "mobile_phone"}}, {"type": "node", "id": 962224344, "lat": 55.6797584, "lon": 37.6239561, "tags": {"name": "\u0421\u043f\u0430\u0441\u0441\u043a\u0438\u0435 \u0432\u043e\u0440\u043e\u0442\u0430", "office": "insurance"}}, {"type": "node", "id": 964667536, "lat": 55.6072352, "lon": 37.5916817, "tags": {"government": "migration", "name": "\u0423\u0424\u041c\u0421 \u0427\u0435\u0440\u0442\u0430\u043d\u043e\u0432\u043e \u0426\u0435\u043d\u0442\u0440\u0430\u043b\u044c\u043d\u043e\u0435", "office": "government", "official_name": "\u041e\u0442\u0434\u0435\u043b\u0435\u043d\u0438\u0435 \u043f\u043e \u0440\u0430\u0439\u043e\u043d\u0443 \u0427\u0435\u0440\u0442\u0430\u043d\u043e\u0432\u043e \u0426\u0435\u043d\u0442\u0440\u0430\u043b\u044c\u043d\u043e\u0435 \u043e\u0442\u0434\u0435\u043b\u0430 \u0423\u0424\u041c\u0421 \u043f\u043e \u0433.\u041c\u043e\u0441\u043a\u0432\u0435 \u0432 \u042e\u0410\u041e", "website": "https://fmsmoscow.ru/"}}, {"type": "node", "id": 967415335, "lat": 55.8639267, "lon": 37.6773341, "tags": {"contact:email": "info@teploproekt.com", "contact:fax": "+7 495 4711372", "contact:phone": "+7 495 4711336", "contact:website": "http://www.teploproekt.com/", "name": "\u0422\u0435\u043f\u043b\u043e\u043f\u0440\u043e\u0435\u043a\u0442", "office": "architect", "opening_hours": "Mo-Fr 09:00-18:00", "start_date": "1954"}}, {"type": "node", "id": 967493362, "lat": 55.8564301, "lon": 37.6701074, "tags": {"name": "\u041c\u0443\u043d\u0438\u0446\u0438\u043f\u0430\u043b\u0438\u0442\u0435\u0442 \u0440\u0430\u0439\u043e\u043d\u0430 \u041b\u043e\u0441\u0438\u043d\u043e\u043e\u0441\u0442\u0440\u043e\u0432\u0441\u043a\u0438\u0439", "office": "government"}}, {"type": "node", "id": 967493367, "lat": 55.8564809, "lon": 37.6701157, "tags": {"name": "\u041c\u0443\u043d\u0438\u0446\u0438\u043f\u0430\u043b\u0438\u0442\u0435\u0442 \u0440\u0430\u0439\u043e\u043d\u0430 \u0411\u0430\u0431\u0443\u0448\u043a\u0438\u043d\u0441\u043a\u0438\u0439", "office": "government"}}, {"type": "node", "id": 967493368, "lat": 55.8565432, "lon": 37.6701239, "tags": {"name": "\u041c\u0443\u043d\u0438\u0446\u0438\u043f\u0430\u043b\u0438\u0442\u0435\u0442 \u0440\u0430\u0439\u043e\u043d\u0430 \u0421\u0432\u0438\u0431\u043b\u043e\u0432\u043e", "office": "government"}}, {"type": "node", "id": 968170587, "lat": 55.7697327, "lon": 37.5931612, "tags": {"name": "\u041d\u0418 \u0438 \u041f\u0418 \u0413\u0435\u043d\u043f\u043b\u0430\u043d\u0430 \u041c\u043e\u0441\u043a\u0432\u044b", "office": "company"}}, {"type": "node", "id": 968170600, "lat": 55.7701575, "lon": 37.5928487, "tags": {"contact:email": "aua@mosproject.ru", "contact:fax": "+7 499 2502373", "contact:phone": "+7 499 2505033", "contact:website": "http://www.mosproject.ru/", "name": "\u041c\u043e\u0441\u043f\u0440\u043e\u0435\u043a\u0442", "office": "architect"}}, {"type": "node", "id": 968170685, "lat": 55.7713139, "lon": 37.5906239, "tags": {"admin_level": "4", "alt_name": "\u041c\u043e\u0441\u043a\u043e\u043c\u044d\u043a\u0441\u043f\u0435\u0440\u0442\u0438\u0437\u0430", "contact:phone": "+7 495 9579920", "contact:website": "https://www.mos.ru/mke/", "name": "\u041c\u043e\u0441\u0433\u043e\u0441\u044d\u043a\u0441\u043f\u0435\u0440\u0442\u0438\u0437\u0430", "office": "government", "official_name": "\u041a\u043e\u043c\u0438\u0442\u0435\u0442 \u0433\u043e\u0440\u043e\u0434\u0430 \u041c\u043e\u0441\u043a\u0432\u044b \u043f\u043e \u0446\u0435\u043d\u043e\u0432\u043e\u0439 \u043f\u043e\u043b\u0438\u0442\u0438\u043a\u0435 \u0432 \u0441\u0442\u0440\u043e\u0438\u0442\u0435\u043b\u044c\u0441\u0442\u0432\u0435 \u0438 \u0433\u043e\u0441\u0443\u0434\u0430\u0440\u0441\u0442\u0432\u0435\u043d\u043d\u043e\u0439 \u044d\u043a\u0441\u043f\u0435\u0440\u0442\u0438\u0437\u0435 \u043f\u0440\u043e\u0435\u043a\u0442\u043e\u0432"}}, {"type": "node", "id": 968170733, "lat": 55.7694219, "lon": 37.5938188, "tags": {"admin_level": "4", "name": "\u041a\u043e\u043c\u0438\u0442\u0435\u0442 \u043f\u043e \u0430\u0440\u0445\u0438\u0442\u0435\u043a\u0442\u0443\u0440\u0435 \u0438 \u0433\u0440\u0430\u0434\u043e\u0441\u0442\u0440\u043e\u0438\u0442\u0435\u043b\u044c\u0441\u0442\u0432\u0443 \u041c\u043e\u0441\u043a\u0432\u044b", "office": "government"}}, {"type": "node", "id": 968170787, "lat": 55.7703304, "lon": 37.5909153, "tags": {"contact:email": "info@mosproject2.ru", "contact:facebook": "https://www.facebook.com/pages/%D0%9E%D0%90%D0%9E-%D0%9C%D0%BE%D1%81%D0%BF%D1%80%D0%BE%D0%B5%D0%BA%D1%82-2/1644584142447534", "contact:phone": "+7 499 2518187", "contact:twitter": "https://twitter.com/mosproject2", "contact:vk": "http://vk.com/mosproject2", "contact:website": "http://www.mosproject2.ru/", "name": "\u041e\u0410\u041e \u00ab\u041c\u043e\u0441\u043f\u0440\u043e\u0435\u043a\u0442-2\u00bb \u0438\u043c\u0435\u043d\u0438 \u041c. \u0412. \u041f\u043e\u0441\u043e\u0445\u0438\u043d\u0430", "office": "architect", "opening_hours": "Mo-Fr 08:00-17:00"}}, {"type": "node", "id": 976689538, "lat": 55.4758866, "lon": 37.3068516, "tags": {"name": "2 \u0440\u0430\u0439\u043e\u043d\u043d\u044b\u0439 \u043e\u0442\u0434\u0435\u043b \u043d\u0430\u0434\u0437\u043e\u0440\u043d\u043e\u0439 \u0434\u0435\u044f\u0442\u0435\u043b\u044c\u043d\u043e\u0441\u0442\u0438 \u041c\u0427\u0421 \u041d\u0438\u0422\u0410\u041e", "office": "government"}}, {"type": "node", "id": 988853638, "lat": 55.7801738, "lon": 37.6140109, "tags": {"contact:website": "http://1c.ru", "name": "1\u0421", "office": "company"}}, {"type": "node", "id": 993044951, "lat": 55.7847585, "lon": 37.4811889, "tags": {"name": "\u0413\u0411\u0423 \"\u0410\u0432\u0442\u043e\u043c\u043e\u0431\u0438\u043b\u044c\u043d\u044b\u0435 \u0434\u043e\u0440\u043e\u0433\u0438\"", "office": "yes"}}, {"type": "node", "id": 993815504, "lat": 55.8018007, "lon": 37.726436, "tags": {"name": "\u0413\u043e\u0440\u043e\u0434\u0441\u043a\u0430\u044f \u043a\u043e\u043b\u043b\u0435\u0433\u0438\u044f \u0430\u0434\u0432\u043e\u043a\u0430\u0442\u043e\u0432", "office": "lawyer"}}, {"type": "node", "id": 994054736, "lat": 55.8135682, "lon": 37.7202685, "tags": {"government": "register_office", "name": "\u0411\u043e\u0433\u043e\u0440\u043e\u0434\u0441\u043a\u0438\u0439 \u043e\u0442\u0434\u0435\u043b \u0417\u0410\u0413\u0421", "name:en": "Civil Status Registration Office ofBogorodskoe District", "office": "government", "opening_hours": "Tu-Sa 09:00-13:30,15:00-17:30", "phone": "+7 499 1691170", "source": "zags.mos.ru"}}, {"type": "node", "id": 999127038, "lat": 55.6402961, "lon": 37.0170211, "tags": {"name": "\u0416\u041a\u0423", "office": "property_management"}}, {"type": "node", "id": 999127055, "lat": 55.6384536, "lon": 37.0137764, "tags": {"note": "\u0434\u043e\u043c\u043e\u0443\u043f\u0440\u0430\u0432\u043b\u0435\u043d\u0438\u0435", "office": "property_management"}}, {"type": "node", "id": 1017969474, "lat": 55.6651751, "lon": 37.517103, "tags": {"name": "\u0423\u043f\u0440\u0430\u0432\u0430 \u0440\u0430\u0439\u043e\u043d\u0430 \u041e\u0431\u0440\u0443\u0447\u0435\u0432\u0441\u043a\u0438\u0439", "office": "government"}}, {"type": "node", "id": 1039306385, "lat": 55.8175842, "lon": 37.9668492, "tags": {"brand": "\u0421\u0432\u044f\u0437\u043d\u043e\u0439", "contact:phone": "+7 800 2220888", "contact:vk": "https://vk.com/club11445015", "contact:website": "https://www.svyaznoy.ru/", "name": "\u0421\u0432\u044f\u0437\u043d\u043e\u0439", "name:ru": "\u0421\u0432\u044f\u0437\u043d\u043e\u0439", "office": "telecommunication", "opening_hours": "Mo-Su 10:00-21:00", "operator:wikidata": "Q65371", "operator:wikipedia": "ru:\u0421\u0432\u044f\u0437\u043d\u043e\u0439 (\u043a\u043e\u043c\u043f\u0430\u043d\u0438\u044f)", "shop": "mobile_phone"}}, {"type": "node", "id": 1043580611, "lat": 55.8954045, "lon": 37.5946896, "tags": {"name": "\u041e\u0442\u0434\u0435\u043b \u0436\u0438\u043b\u0438\u0449\u043d\u044b\u0445 \u0441\u0443\u0431\u0441\u0438\u0434\u0438\u0439 \"\u0411\u0438\u0431\u0438\u0440\u0435\u0432\u043e\"", "office": "government", "official_name": "\u0413\u043e\u0441\u0443\u0434\u0430\u0440\u0441\u0442\u0432\u0435\u043d\u043d\u043e\u0435 \u0443\u0447\u0440\u0435\u0436\u0434\u0435\u043d\u0438\u0435 \u043a\u0443\u043b\u044c\u0442\u0443\u0440\u044b \u0433\u043e\u0440\u043e\u0434\u0430 \u041c\u043e\u0441\u043a\u0432\u044b \u0433\u043e\u0440\u043e\u0434\u0441\u043a\u043e\u0439 \u0446\u0435\u043d\u0442\u0440 \u0436\u0438\u043b\u0438\u0449\u043d\u044b\u0445 \u0441\u0443\u0431\u0441\u0438\u0434\u0438\u0439 \u043e\u0442\u0434\u0435\u043b \u0436\u0438\u043b\u0438\u0449\u043d\u044b\u0445 \u0441\u0443\u0431\u0441\u0438\u0434\u0438\u0439 \"\u0411\u0438\u0431\u0438\u0440\u0435\u0432\u043e\""}}, {"type": "node", "id": 1043580620, "lat": 55.8954047, "lon": 37.5947297, "tags": {"name": "\u0421\u043b\u0443\u0436\u0431\u0430 \u043e\u0434\u043d\u043e\u0433\u043e \u043e\u043a\u043d\u0430", "office": "property_management", "official_name": "\u0413\u0423 \u0413\u043e\u0440\u043e\u0434\u0441\u043a\u043e\u0439 \u0446\u0435\u043d\u0442\u0440 \u0436\u0438\u043b\u0438\u0449\u043d\u044b\u0445 \u0441\u0443\u0431\u0441\u0438\u0434\u0438\u0439 \u0440\u0430\u0439\u043e\u043d\u043d\u044b\u0439 \u043e\u0442\u0434\u0435\u043b \u2116 36 \"\u0411\u0438\u0431\u0438\u0440\u0435\u0432\u043e\" \u0441\u043b\u0443\u0436\u0431\u0430 \"\u043e\u0434\u043d\u043e\u0433\u043e \u043e\u043a\u043d\u0430\""}}, {"type": "node", "id": 1043580628, "lat": 55.8954842, "lon": 37.594692, "tags": {"name": "\u0414\u0438\u0441\u043f\u0435\u0442\u0447\u0435\u0440\u0441\u043a\u0430\u044f \u0441\u043b\u0443\u0436\u0431\u0430 \u0440\u0430\u0439\u043e\u043d\u0430 \u0411\u0438\u0431\u0438\u0440\u0435\u0432\u043e", "office": "property_management"}}, {"type": "node", "id": 1045827843, "lat": 55.898764, "lon": 37.5853081, "tags": {"brand": "\u0411\u0438\u043b\u0430\u0439\u043d", "brand:wikidata": "Q402880", "brand:wikipedia": "ru:\u0411\u0438\u043b\u0430\u0439\u043d", "contact:facebook": "https://www.facebook.com/Beelinerus", "contact:instagram": "https://www.instagram.com/beelinerus", "contact:ok": "https://ok.ru/beeline", "contact:phone": "+7 800 7000611", "contact:twitter": "https://twitter.com/Beeline_RUS", "contact:vk": "https://vk.com/beeline", "contact:website": "https://beeline.ru", "contact:youtube": "https://www.youtube.com/user/beelineru", "name": "\u0411\u0438\u043b\u0430\u0439\u043d", "name:en": "Beeline", "name:ru": "\u0411\u0438\u043b\u0430\u0439\u043d", "office": "telecommunication", "shop": "mobile_phone"}}, {"type": "node", "id": 1055415374, "lat": 55.6332964, "lon": 37.6501286, "tags": {"name": "\u0423\u0424\u041c\u0421 \u0426\u0430\u0440\u0438\u0446\u044b\u043d\u043e", "office": "government"}}, {"type": "node", "id": 1064696301, "lat": 55.8968825, "lon": 37.5878429, "tags": {"name": "\u041f\u0430\u0441\u0441\u0430\u0436\u0438\u0440\u0441\u043a\u043e\u0435 \u0430\u0433\u0435\u043d\u0442\u0441\u0442\u0432\u043e \u043c\u0435\u0442\u0440\u043e\u043f\u043e\u043b\u0438\u0442\u0435\u043d\u0430", "office": "company", "website": "http://mosmetro.ru/"}}, {"type": "node", "id": 1065506747, "lat": 55.8809, "lon": 37.5894, "tags": {"alt_name": "\u0423\u043f\u0440\u0430\u0432\u0430 \u0440\u0430\u0439\u043e\u043d\u0430 \u0410\u043b\u0442\u0443\u0444\u044c\u0435\u0432\u0441\u043a\u0438\u0439", "description": "\u0421\u0412\u0410\u041e", "government": "municipal", "name": "\u0410\u0434\u043c\u0438\u043d\u0438\u0441\u0442\u0440\u0430\u0446\u0438\u044f \u043c\u0443\u043d\u0438\u0446\u0438\u043f\u0430\u043b\u044c\u043d\u043e\u0433\u043e \u043e\u043a\u0440\u0443\u0433\u0430 \u0410\u043b\u0442\u0443\u0444\u044c\u0435\u0432\u0441\u043a\u0438\u0439", "office": "government"}}, {"type": "node", "id": 1076482905, "lat": 55.7395648, "lon": 37.8601936, "tags": {"addr:city": "\u041c\u043e\u0441\u043a\u0432\u0430", "addr:housenumber": "20 \u043a1", "addr:street": "\u041d\u043e\u0432\u043e\u043a\u043e\u0441\u0438\u043d\u0441\u043a\u0430\u044f \u0443\u043b\u0438\u0446\u0430", "alt_name": "\u0415\u0418\u0420\u0426", "name": "\u0418\u043d\u0436\u0435\u043d\u0435\u0440\u043d\u0430\u044f \u0441\u043b\u0443\u0436\u0431\u0430 \u0440\u0430\u0439\u043e\u043d\u0430 \u041d\u043e\u0432\u043e\u043a\u043e\u0441\u0438\u043d\u043e", "office": "property_management", "short_name": "\u0413\u0423 \u0418\u0421"}}, {"type": "node", "id": 1086716562, "lat": 55.8962758, "lon": 37.5880903, "tags": {"layer": "1", "name": "\u0418\u043d\u0442\u0435\u0440\u043d\u0435\u0442-\u043f\u0440\u043e\u0432\u0430\u0439\u0434\u0435\u0440 \"\u0421\u0442\u0430\u0440\u043b\u0438\u043d\u043a\"", "office": "telecommunication", "operator": "\u041e\u041e\u041e \"\u041c\u0435\u0434\u0438\u0430\"", "shop": "yes", "website": "http://starlink.ru/"}}, {"type": "node", "id": 1092115360, "lat": 55.8447457, "lon": 37.586494, "tags": {"contact:website": "https://guvm.mvd.ru", "fixme": "\u0434\u0432\u0430 \u0423\u0424\u041c\u0421 \u043f\u043e \u043e\u0434\u043d\u043e\u043c\u0443 \u0440\u0430\u0439\u043e\u043d\u0443?", "government": "migration", "name": "\u0423\u0424\u041c\u0421 \u041c\u0430\u0440\u0444\u0438\u043d\u043e", "office": "government"}}, {"type": "node", "id": 1097812274, "lat": 55.6723598, "lon": 37.278715, "tags": {"brand": "\u041c\u0435\u0433\u0430\u0424\u043e\u043d", "brand:en": "MegaFon", "brand:wikidata": "Q1720713", "brand:wikipedia": "ru:\u041c\u0435\u0433\u0430\u0444\u043e\u043d (\u043a\u043e\u043c\u043f\u0430\u043d\u0438\u044f)", "contact:facebook": "https://www.facebook.com/MegaFon.ru", "contact:habrahabr": "https://habrahabr.ru/company/megafon", "contact:ok": "https://ok.ru/megafon", "contact:phone": "+7 800 5500500", "contact:twitter": "https://twitter.com/megafonru", "contact:vk": "https://vk.com/megafon", "contact:website": "https://megafon.ru", "contact:youtube": "https://www.youtube.com/user/MegaFonTV", "name": "\u041c\u0435\u0433\u0430\u0424\u043e\u043d", "name:en": "MegaFon", "name:ru": "\u041c\u0435\u0433\u0430\u0424\u043e\u043d", "office": "telecommunication", "shop": "mobile_phone", "website": "http://megafon.ru/"}}, {"type": "node", "id": 1097980413, "lat": 55.7990859, "lon": 37.5000585, "tags": {"description": "\u0424\u0435\u0434\u0435\u0440\u0430\u043b\u044c\u043d\u0430\u044f \u0441\u043b\u0443\u0436\u0431\u0430 \u0441\u0443\u0434\u0435\u0431\u043d\u044b\u0445 \u043f\u0440\u0438\u0441\u0442\u0430\u0432\u043e\u0432 \u043f\u043e \u0421\u0410\u041e", "name": "\u0413\u0423 \u0424\u0421\u0421\u041f \u0421\u0410\u041e", "office": "government", "website": "http://www.r77.fssprus.ru/"}}, {"type": "node", "id": 1101780386, "lat": 55.7940852, "lon": 37.4836431, "tags": {"name": "\u041c\u043e\u0441\u043a\u043e\u0432\u0441\u043a\u043e\u0435 \u0423\u0412\u0414 \u043d\u0430 \u0432\u043e\u0434\u043d\u043e\u043c \u0438 \u0432\u043e\u0437\u0434\u0443\u0448\u043d\u043e\u043c \u0442\u0440\u0430\u043d\u0441\u043f\u043e\u0440\u0442\u0435", "office": "government", "official_name": "\u041c\u043e\u0441\u043a\u043e\u0432\u0441\u043a\u043e\u0435 \u0443\u043f\u0440\u0430\u0432\u043b\u0435\u043d\u0438\u0435 \u0432\u043d\u0443\u0442\u0440\u0435\u043d\u043d\u0438\u0445 \u0434\u0435\u043b \u043d\u0430 \u0432\u043e\u0434\u043d\u043e\u043c \u0438 \u0432\u043e\u0437\u0434\u0443\u0448\u043d\u043e\u043c \u0442\u0440\u0430\u043d\u0441\u043f\u043e\u0440\u0442\u0435"}}, {"type": "node", "id": 1106417587, "lat": 55.9405876, "lon": 37.5124468, "tags": {"name": "\u0423\u043f\u0440\u0430\u0432\u043b\u0435\u043d\u0438\u0435 \u043a\u0443\u043b\u044c\u0442\u0443\u0440\u044b", "office": "government"}}, {"type": "node", "id": 1106449505, "lat": 55.9385313, "lon": 37.5138236, "tags": {"contact:website": "http://www.pfrf.ru", "government": "pension_fund", "name": "\u041f\u0435\u043d\u0441\u0438\u043e\u043d\u043d\u044b\u0439 \u0444\u043e\u043d\u0434", "office": "government"}}, {"type": "node", "id": 1106955937, "lat": 55.8134049, "lon": 37.6373609, "tags": {"brand": "\u041c\u0422\u0421", "brand:wikidata": "Q1368919", "brand:wikipedia": "ru:\u041c\u0422\u0421 (\u043a\u043e\u043c\u043f\u0430\u043d\u0438\u044f)", "contact:facebook": "https://www.facebook.com/mts", "contact:ok": "https://ok.ru/mts", "contact:phone": "+7 800 2500890", "contact:twitter": "https://twitter.com/ru_mts", "contact:vk": "https://vk.com/mts", "contact:website": "https://moskva.mts.ru/", "name": "\u041c\u0422\u0421", "name:en": "MTS", "name:ru": "\u041c\u0422\u0421", "office": "telecommunication", "opening_hours": "Mo-Su 09:00-21:00", "operator": "\u041c\u043e\u0431\u0438\u043b\u044c\u043d\u044b\u0435 \u0422\u0435\u043b\u0435\u0421\u0438\u0441\u0442\u0435\u043c\u044b", "operator:wikidata": "Q1368919", "operator:wikipedia": "ru:\u041c\u0422\u0421 (\u043a\u043e\u043c\u043f\u0430\u043d\u0438\u044f)", "shop": "mobile_phone"}}, {"type": "node", "id": 1110728264, "lat": 55.938391, "lon": 37.5177292, "tags": {"office": "notary", "opening_hours": "Mo,Tu,Th,Fr 09:00-17:00; We,Sa 09:00-14:00; Su off", "phone": "+7 495 5761389"}}, {"type": "node", "id": 1110728268, "lat": 55.9392228, "lon": 37.517303, "tags": {"office": "notary", "opening_hours": "Mo-Fr 09:00-17:00; We off; Sa 09:00-14:00"}}, {"type": "node", "id": 1110728269, "lat": 55.9367683, "lon": 37.5185594, "tags": {"contact:phone": "+7 495 5764424", "office": "notary", "opening_hours": "Mo-Th 10:00-14:00,15:00-18:00; Fr 10:00-14:00,15:00-16:00", "operator": "\u0412\u0438\u043d\u0435\u0440 \u0414\u043c\u0438\u0442\u0440\u0438\u0439 \u042e\u0440\u044c\u0435\u0432\u0438\u0447"}}, {"type": "node", "id": 1110728278, "lat": 55.9371209, "lon": 37.5183675, "tags": {"office": "notary", "opening_hours": "We 09:00-14:00; Tu,Th 09:00-17:00; Fr-Sa 09:00-14:00", "phone": "4086820"}}, {"type": "node", "id": 1112461355, "lat": 55.6064358, "lon": 37.7086885, "tags": {"name": "\u0413\u043e\u0441\u0443\u0434\u0430\u0440\u0441\u0442\u0432\u0435\u043d\u043d\u0430\u044f \u0438\u043d\u0441\u043f\u0435\u043a\u0446\u0438\u044f \u0442\u0440\u0443\u0434\u0430 \u0432 \u041c\u043e\u0441\u043a\u043e\u0432\u0441\u043a\u043e\u0439 \u043e\u0431\u043b\u0430\u0441\u0442\u0438", "office": "government", "website": "gitmo.asot.ru"}}, {"type": "node", "id": 1112461368, "lat": 55.6065576, "lon": 37.7086271, "tags": {"name": "\u0413\u043e\u0441\u0443\u0434\u0430\u0440\u0441\u0442\u0432\u0435\u043d\u043d\u0430\u044f \u0438\u043d\u0441\u043f\u0435\u043a\u0446\u0438\u044f \u0442\u0440\u0443\u0434\u0430 \u0432 \u0433\u043e\u0440\u043e\u0434\u0435 \u041c\u043e\u0441\u043a\u0432\u0435", "office": "government", "website": "https://git77.rostrud.ru/"}}, {"type": "node", "id": 1116494604, "lat": 55.7116264, "lon": 37.8530484, "tags": {"name": "\u0415\u0418\u0420\u0426 \u041a\u043e\u0441\u0438\u043d\u043e-\u0423\u0445\u0442\u043e\u043c\u0441\u043a\u0438\u0439", "office": "property_management"}}, {"type": "node", "id": 1116495580, "lat": 55.7109618, "lon": 37.8524335, "tags": {"fax": "+7 495 7005197", "government": "mig", "name": "\u0423\u0424\u041c\u0421", "office": "government", "official_name": "\u041e\u0442\u0434\u0435\u043b \u0423\u0424\u041c\u0421 \u0420\u043e\u0441\u0441\u0438\u0438 \u043f\u043e \u0433\u043e\u0440\u043e\u0434\u0443 \u041c\u043e\u0441\u043a\u0432\u0435 \u043f\u043e \u0440\u0430\u0439\u043e\u043d\u0443 \u041a\u043e\u0441\u0438\u043d\u043e-\u0423\u0445\u0442\u043e\u043c\u0441\u043a\u0438\u0439", "phone": "+7 495 7005196", "website": "https://fmsmoscow.ru/"}}, {"type": "node", "id": 1116495903, "lat": 55.7131796, "lon": 37.8557792, "tags": {"name": "\u0423\u043f\u0440\u0430\u0432\u0430 \u0440\u0430\u0439\u043e\u043d\u0430 \u041a\u043e\u0441\u0438\u043d\u043e-\u0423\u0445\u0442\u043e\u043c\u0441\u043a\u0438\u0439", "office": "government"}}, {"type": "node", "id": 1121249156, "lat": 55.795526, "lon": 37.9332497, "tags": {"contact:facebook": "https://www.facebook.com/nalog.ru", "contact:twitter": "https://twitter.com/nalog__ru", "contact:vk": "https://vk.com/nalog__ru", "contact:website": "https://www.nalog.ru", "government": "tax", "name": "\u0418\u0424\u041d\u0421 \u0420\u0424", "office": "government", "official_name": "\u0418\u043d\u0441\u043f\u0435\u043a\u0446\u0438\u044f \u0444\u0435\u0434\u0435\u0440\u0430\u043b\u044c\u043d\u043e\u0439 \u043d\u0430\u043b\u043e\u0433\u043e\u0432\u043e\u0439 \u0441\u043b\u0443\u0436\u0431\u044b \u0420\u043e\u0441\u0441\u0438\u0439\u0441\u043a\u043e\u0439 \u0424\u0435\u0434\u0435\u0440\u0430\u0446\u0438\u0438", "opening_hours": "Mo-Fr 09:00-13:00,14:00-18:00", "ref": "5001"}}, {"type": "node", "id": 1121305576, "lat": 55.7667663, "lon": 37.5262928, "tags": {"name": "XiTech.ru", "office": "company", "opening_hours": "Mo-Fr 10:00-19:00"}}, {"type": "node", "id": 1123368434, "lat": 55.9370049, "lon": 37.5177076, "tags": {"government": "education", "name": "\u0423\u043f\u0440\u0430\u0432\u043b\u0435\u043d\u0438\u0435 \u043e\u0431\u0440\u0430\u0437\u043e\u0432\u0430\u043d\u0438\u044f", "office": "government"}}, {"type": "node", "id": 1123368446, "lat": 55.9328674, "lon": 37.5195368, "tags": {"alt_name": "\u041c\u0424\u0426 \u0414\u043e\u043b\u0433\u043e\u043f\u0440\u0443\u0434\u043d\u044b\u0439", "amenity": "public_service", "brand": "\u041c\u043e\u0438 \u0434\u043e\u043a\u0443\u043c\u0435\u043d\u0442\u044b", "contact:email": "dolgoprudniygo@mosreg.ru", "contact:facebook": "https://www.facebook.com/%D0%9C%D0%9A%D0%A3-%D0%9C%D0%A4%D0%A6-%D0%94%D0%BE%D0%BB%D0%B3%D0%BE%D0%BF%D1%80%D1%83%D0%B4%D0%BD%D1%8B%D0%B9-141300919559816/", "contact:instagram": "https://www.instagram.com/dol_mfc/", "contact:phone": "8 800 5505030-52205", "contact:twitter": "https://twitter.com/DolgoprudnyMFC", "contact:vk": "https://vk.com/dol_mfc", "contact:website": "https://www.dol-mfc.ru/", "government": "public_service", "name": "\u041c\u043d\u043e\u0433\u043e\u0444\u0443\u043d\u043a\u0446\u0438\u043e\u043d\u0430\u043b\u044c\u043d\u044b\u0439 \u0446\u0435\u043d\u0442\u0440 \u043f\u0440\u0435\u0434\u043e\u0441\u0442\u0430\u0432\u043b\u0435\u043d\u0438\u044f \u0433\u043e\u0441\u0443\u0434\u0430\u0440\u0441\u0442\u0432\u0435\u043d\u043d\u044b\u0445 \u0438 \u043c\u0443\u043d\u0438\u0446\u0438\u043f\u0430\u043b\u044c\u043d\u044b\u0445 \u0443\u0441\u043b\u0443\u0433 \u0433. \u0414\u043e\u043b\u0433\u043e\u043f\u0440\u0443\u0434\u043d\u044b\u0439", "office": "government", "official_name": "\u041c\u0443\u043d\u0438\u0446\u0438\u043f\u0430\u043b\u044c\u043d\u043e\u0435 \u043a\u0430\u0437\u0451\u043d\u043d\u043e\u0435 \u0443\u0447\u0440\u0435\u0436\u0434\u0435\u043d\u0438\u0435 \"\u041c\u043d\u043e\u0433\u043e\u0444\u0443\u043d\u043a\u0446\u0438\u043e\u043d\u0430\u043b\u044c\u043d\u044b\u0439 \u0446\u0435\u043d\u0442\u0440 \u043f\u043e \u043f\u0440\u0435\u0434\u043e\u0441\u0442\u0430\u0432\u043b\u0435\u043d\u0438\u044e \u0433\u043e\u0441\u0443\u0434\u0430\u0440\u0441\u0442\u0432\u0435\u043d\u043d\u044b\u0445 \u0443\u0441\u043b\u0443\u0433 \u0433\u043e\u0440\u043e\u0434\u0430 \u0414\u043e\u043b\u0433\u043e\u043f\u0440\u0443\u0434\u043d\u044b\u0439 \u041c\u043e\u0441\u043a\u043e\u0432\u0441\u043a\u043e\u0439 \u043e\u0431\u043b\u0430\u0441\u0442\u0438\"", "opening_hours": "Mo-Sa 08:00-20:00", "short_name": "\u041c\u0424\u0426", "wheelchair": "yes"}}, {"type": "node", "id": 1123391718, "lat": 55.9388317, "lon": 37.5177022, "tags": {"name": "\u0421\u0442\u0440\u0430\u0445\u043e\u0432\u043e\u0435 \u043e\u0431\u0449\u0435\u0441\u0442\u0432\u043e \u0420\u043e\u0441\u0441\u0438\u044f", "office": "insurance"}}, {"type": "node", "id": 1123391721, "lat": 55.9385462, "lon": 37.5177026, "tags": {"contact:phone": "+7 495 4088558;+7 495 6494612;+7 926 5347636", "contact:website": "http://variantagent.ru", "name": "\u0412\u0430\u0440\u0438\u0430\u043d\u0442", "office": "estate_agent", "official_name": "\u0410\u0433\u0435\u043d\u0442\u0441\u0442\u0432\u043e \u043d\u0435\u0434\u0432\u0438\u0436\u0438\u043c\u043e\u0441\u0442\u0438 \u0412\u0430\u0440\u0438\u0430\u043d\u0442", "opening_hours": "Mo-Fr 09:00-19:00; Sa-Su off"}}, {"type": "node", "id": 1123391724, "lat": 55.9383122, "lon": 37.5177671, "tags": {"contact:email": "info@glz.ru", "contact:phone": "+7 495 4083903", "contact:website": "http://www.glz.ru", "name": "\u0416\u0438\u043b\u0446\u0435\u043d\u0442\u0440", "office": "estate_agent", "official_name": "\u0410\u0433\u0435\u043d\u0442\u0441\u0442\u0432\u043e \u043d\u0435\u0434\u0432\u0438\u0436\u0438\u043c\u043e\u0441\u0442\u0438 \u0416\u0438\u043b\u0446\u0435\u043d\u0442\u0440", "opening_hours": "Mo-Fr 09:00-20:00; Sa 10:00-15:00; Su off"}}, {"type": "node", "id": 1126453160, "lat": 55.7142284, "lon": 37.8880784, "tags": {"contact:website": "http://www.pfrf.ru", "government": "pension_fund", "name": "\u041f\u0435\u043d\u0441\u0438\u043e\u043d\u043d\u044b\u0439 \u0444\u043e\u043d\u0434", "office": "government"}}, {"type": "node", "id": 1126453539, "lat": 55.7138358, "lon": 37.8923961, "tags": {"addr:city": "\u041c\u043e\u0441\u043a\u0432\u0430", "addr:housenumber": "11", "addr:street": "\u0421\u0432\u044f\u0442\u043e\u043e\u0437\u0451\u0440\u0441\u043a\u0430\u044f \u0443\u043b\u0438\u0446\u0430", "alt_name": "\u0415\u0418\u0420\u0426", "name": "\u0418\u043d\u0436\u0435\u043d\u0435\u0440\u043d\u0430\u044f \u0441\u043b\u0443\u0436\u0431\u0430 \u0440\u0430\u0439\u043e\u043d\u0430 \u041a\u043e\u0441\u0438\u043d\u043e-\u0423\u0445\u0442\u043e\u043c\u0441\u043a\u0438\u0439", "office": "property_management", "short_name": "\u0413\u0423 \u0418\u0421"}}, {"type": "node", "id": 1126453959, "lat": 55.7139625, "lon": 37.889075, "tags": {"name": "\u0420\u042d\u0423", "office": "property_management"}}, {"type": "node", "id": 1126602915, "lat": 55.7166725, "lon": 37.8899924, "tags": {"name": "\u0413\u0423\u0418\u0421 \u0440\u0430\u0439\u043e\u043d\u0430 \u041a\u043e\u0441\u0438\u043d\u043e-\u0423\u0445\u0442\u043e\u043c\u0441\u043a\u0438\u0439", "office": "property_management"}}, {"type": "node", "id": 1129232416, "lat": 55.8996308, "lon": 37.5882048, "tags": {"brand": "\u041c\u0435\u0433\u0430\u0424\u043e\u043d", "brand:wikidata": "Q1720713", "brand:wikipedia": "ru:\u041c\u0435\u0433\u0430\u0444\u043e\u043d (\u043a\u043e\u043c\u043f\u0430\u043d\u0438\u044f)", "check_date:opening_hours": "2022-05-13", "contact:facebook": "https://www.facebook.com/MegaFon.ru", "contact:habrahabr": "https://habrahabr.ru/company/megafon", "contact:ok": "https://ok.ru/megafon", "contact:phone": "+7 800 5500500", "contact:twitter": "https://twitter.com/megafonru", "contact:vk": "https://vk.com/megafon", "contact:website": "https://megafon.ru", "contact:youtube": "https://www.youtube.com/user/MegaFonTV", "name": "\u041c\u0435\u0433\u0430\u0424\u043e\u043d", "name:en": "MegaFon", "name:ru": "\u041c\u0435\u0433\u0430\u0424\u043e\u043d", "office": "telecommunication", "opening_hours": "Mo-Su 09:00-21:00", "operator:wikidata": "Q1720713", "operator:wikipedia": "ru:\u041c\u0435\u0433\u0430\u0444\u043e\u043d (\u043a\u043e\u043c\u043f\u0430\u043d\u0438\u044f)", "shop": "mobile_phone"}}, {"type": "node", "id": 1129345657, "lat": 55.7951927, "lon": 37.9269703, "tags": {"name": "\u041c\u0435\u0440\u0438\u0434\u0438\u0430\u043d", "office": "private"}}, {"type": "node", "id": 1132460159, "lat": 55.8852757, "lon": 37.6020779, "tags": {"layer": "-1", "name": "\u0410\u0432\u0438\u0430 \u0438 \u0436/\u0434 \u0431\u0438\u043b\u0435\u0442\u044b \"\u0422\u0440\u0430\u043d\u0441\u043c\u043e\u0441\u0442-\u0442\u0443\u0440\"", "office": "travel_agent", "shop": "travel_agency", "website": "http://www.transmost-tour.ru/"}}, {"type": "node", "id": 1139440046, "lat": 55.6444748, "lon": 37.6163911, "tags": {"contact:facebook": "https://www.facebook.com/nalog.ru", "contact:twitter": "https://twitter.com/nalog__ru", "contact:vk": "https://vk.com/nalog__ru", "contact:website": "https://www.nalog.ru", "government": "tax", "name": "\u0418\u0424\u041d\u0421 \u211626", "office": "government"}}, {"type": "node", "id": 1141840068, "lat": 55.889187, "lon": 37.5944235, "tags": {"office": "insurance"}}, {"type": "node", "id": 1143939683, "lat": 55.655193, "lon": 37.4155317, "tags": {"government": "migration", "name": "\u041e\u0442\u0434\u0435\u043b\u0435\u043d\u0438\u0435 \u0423\u0424\u041c\u0421 \u0440\u0430\u0439\u043e\u043d\u0430 \u0421\u043e\u043b\u043d\u0446\u0435\u0432\u043e", "office": "government", "official_name": "\u041e\u0442\u0434\u0435\u043b\u0435\u043d\u0438\u0435 \u0423\u043f\u0440\u0430\u0432\u043b\u0435\u043d\u0438\u044f \u0424\u0435\u0434\u0435\u0440\u0430\u043b\u044c\u043d\u043e\u0439 \u043c\u0438\u0433\u0440\u0430\u0446\u0438\u043e\u043d\u043d\u043e\u0439 \u0441\u043b\u0443\u0436\u0431\u044b \u0432 \u0440\u0430\u0439\u043e\u043d\u0435 \u0421\u043e\u043b\u043d\u0446\u0435\u0432\u043e", "wheelchair": "no"}}, {"type": "node", "id": 1146790308, "lat": 55.9682161, "lon": 37.9073247, "tags": {"brand": "\u041c\u0422\u0421", "brand:wikidata": "Q1368919", "brand:wikipedia": "ru:\u041c\u0422\u0421 (\u043a\u043e\u043c\u043f\u0430\u043d\u0438\u044f)", "contact:facebook": "https://www.facebook.com/mts", "contact:ok": "https://ok.ru/mts", "contact:phone": "+7 800 2500890", "contact:twitter": "https://twitter.com/ru_mts", "contact:vk": "https://vk.com/mts", "contact:website": "https://moskva.mts.ru/", "name": "\u041c\u0422\u0421", "name:en": "MTS", "name:ru": "\u041c\u0422\u0421", "office": "telecommunication", "opening_hours": "Mo-Su 10:00-20:00", "operator:wikidata": "Q1368919", "operator:wikipedia": "ru:\u041c\u0422\u0421 (\u043a\u043e\u043c\u043f\u0430\u043d\u0438\u044f)", "shop": "mobile_phone"}}, {"type": "node", "id": 1167852511, "lat": 55.7474988, "lon": 37.8114095, "tags": {"name": "\u0415\u0434\u0438\u043d\u0430\u044f \u0420\u043e\u0441\u0441\u0438\u044f", "office": "political_party"}}, {"type": "node", "id": 1180287727, "lat": 55.8391398, "lon": 37.3995904, "tags": {"name": "\u0425\u0438\u0440\u0448", "office": "insurance"}}, {"type": "node", "id": 1181131013, "lat": 55.7704429, "lon": 37.4202406, "tags": {"name": "Cisco", "office": "telecommunication"}}, {"type": "node", "id": 1181131320, "lat": 55.7706627, "lon": 37.4237815, "tags": {"name": "Microsoft", "office": "it"}}, {"type": "node", "id": 1181131717, "lat": 55.770299, "lon": 37.4197125, "tags": {"name": "Intel", "office": "research", "phone": "+7 495 6414500", "website": "http://www.intel.ru"}}, {"type": "node", "id": 1199973544, "lat": 55.9145696, "lon": 37.7298036, "tags": {"contact:website": "http://www.pfrf.ru", "government": "pension_fund", "name": "\u041f\u0435\u043d\u0441\u0438\u043e\u043d\u043d\u044b\u0439 \u0444\u043e\u043d\u0434", "office": "government", "official_name": "\u041f\u0435\u043d\u0441\u0438\u043e\u043d\u043d\u044b\u0439 \u0444\u043e\u043d\u0434 \u0420\u0424, \u0443\u043f\u0440\u0430\u0432\u043b\u0435\u043d\u0438\u0435 \u21164 \u0413\u0423 \u21166 \u043f\u043e \u041c\u043e\u0441\u043a\u0432\u0435 \u0438 \u041c\u041e"}}, {"type": "node", "id": 1199973549, "lat": 55.9085317, "lon": 37.7320996, "tags": {"name": "\u0416\u0420\u042d\u0423 \u21163", "office": "property_management"}}, {"type": "node", "id": 1199973571, "lat": 55.9082095, "lon": 37.7318158, "tags": {"contact:website": "http://www.pfrf.ru", "government": "pension_fund", "name": "\u041f\u0435\u043d\u0441\u0438\u043e\u043d\u043d\u044b\u0439 \u0444\u043e\u043d\u0434 \u0420\u0424, \u0443\u043f\u0440\u0430\u0432\u043b\u0435\u043d\u0438\u0435 \u21164 \u0413\u0423 \u21166 \u043f\u043e \u041c\u043e\u0441\u043a\u0432\u0435 \u0438 \u041c\u041e", "office": "government"}}, {"type": "node", "id": 1211199997, "lat": 55.8657325, "lon": 37.6502078, "tags": {"name": "\u0410\u0434\u043c\u0438\u043d\u0438\u0441\u0442\u0440\u0430\u0442\u0438\u0432\u043d\u043e-\u0442\u0435\u0445\u043d\u0438\u0447\u0435\u0441\u043a\u0430\u044f \u0438\u043d\u0441\u043f\u0435\u043a\u0446\u0438\u044f \u0421\u0412\u0410\u041e", "office": "government", "operator": "\u041e\u0431\u044a\u0435\u0434\u0438\u043d\u0435\u043d\u0438\u0435 \u0430\u0434\u043c\u0438\u043d\u0438\u0441\u0442\u0440\u0430\u0442\u0438\u0432\u043d\u043e-\u0442\u0435\u0445\u043d\u0438\u0447\u0435\u0441\u043a\u0438\u0445 \u0438\u043d\u0441\u043f\u0435\u043a\u0446\u0438\u0439"}}, {"type": "node", "id": 1212271025, "lat": 55.6086787, "lon": 37.7409903, "tags": {"name": "\u041e\u0414\u0421-17", "office": "government"}}, {"type": "node", "id": 1214613912, "lat": 55.8620597, "lon": 37.4355595, "tags": {"brand": "\u041c\u0422\u0421", "brand:wikidata": "Q1368919", "brand:wikipedia": "ru:\u041c\u0422\u0421 (\u043a\u043e\u043c\u043f\u0430\u043d\u0438\u044f)", "contact:facebook": "https://www.facebook.com/mts", "contact:ok": "https://ok.ru/mts", "contact:phone": "+7 800 2500890", "contact:twitter": "https://twitter.com/ru_mts", "contact:vk": "https://vk.com/mts", "contact:website": "https://moskva.mts.ru/", "name": "\u041c\u0422\u0421", "name:en": "MTS", "name:ru": "\u041c\u0422\u0421", "office": "telecommunication", "opening_hours": "Mo-Su 10:00-22:00", "operator": "\u041c\u0422\u0421", "operator:wikidata": "Q1368919", "operator:wikipedia": "ru:\u041c\u0422\u0421 (\u043a\u043e\u043c\u043f\u0430\u043d\u0438\u044f)", "shop": "mobile_phone"}}, {"type": "node", "id": 1214613913, "lat": 55.8620476, "lon": 37.4354468, "tags": {"brand": "\u0421\u0432\u044f\u0437\u043d\u043e\u0439", "brand:wikidata": "Q65371", "brand:wikipedia": "ru:\u0421\u0432\u044f\u0437\u043d\u043e\u0439 (\u043a\u043e\u043c\u043f\u0430\u043d\u0438\u044f)", "contact:facebook": "https://www.facebook.com/svyaznoy.ru", "contact:phone": "+7 800 2220888", "contact:vk": "https://vk.com/club11445015", "contact:website": "https://www.svyaznoy.ru/", "name": "\u0421\u0432\u044f\u0437\u043d\u043e\u0439", "name:ru": "\u0421\u0432\u044f\u0437\u043d\u043e\u0439", "office": "telecommunication", "opening_hours": "Mo-Su 09:30-22:00", "shop": "mobile_phone"}}, {"type": "node", "id": 1217692516, "lat": 55.9007789, "lon": 37.5889876, "tags": {"office": "notary"}}, {"type": "node", "id": 1224115884, "lat": 55.9846962, "lon": 37.2364178, "tags": {"name": "\u0423\u043f\u0440\u0430\u0432\u043b\u0435\u043d\u0438\u0435 \u0437\u0434\u0440\u0430\u0432\u043e\u043e\u0445\u0440\u0430\u043d\u0435\u043d\u0438\u044f", "office": "government"}}, {"type": "node", "id": 1224115889, "lat": 55.9847382, "lon": 37.2366645, "tags": {"name": "\u0421\u042d\u0421", "office": "company"}}, {"type": "node", "id": 1226435954, "lat": 55.6540034, "lon": 37.6209084, "tags": {"brand": "\u041c\u0435\u0433\u0430\u0424\u043e\u043d", "brand:wikidata": "Q1720713", "brand:wikipedia": "ru:\u041c\u0435\u0433\u0430\u0444\u043e\u043d (\u043a\u043e\u043c\u043f\u0430\u043d\u0438\u044f)", "contact:facebook": "https://www.facebook.com/MegaFon.ru", "contact:habrahabr": "https://habrahabr.ru/company/megafon", "contact:ok": "https://ok.ru/megafon", "contact:phone": "+7 800 5500500", "contact:twitter": "https://twitter.com/megafonru", "contact:vk": "https://vk.com/megafon", "contact:website": "https://megafon.ru", "contact:youtube": "https://www.youtube.com/user/MegaFonTV", "name": "\u041c\u0435\u0433\u0430\u0424\u043e\u043d", "name:en": "MegaFon", "name:ru": "\u041c\u0435\u0433\u0430\u0424\u043e\u043d", "office": "telecommunication", "opening_hours": "10:00-22:00", "shop": "mobile_phone", "website": "http://megafon.ru/", "wheelchair": "yes"}}, {"type": "node", "id": 1227893671, "lat": 55.832972, "lon": 37.4485183, "tags": {"name": "\u0415\u0434\u0438\u043d\u0430\u044f \u0420\u043e\u0441\u0441\u0438\u044f - \u041e\u0442\u0434\u0435\u043b\u0435\u043d\u0438\u0435 \u0440\u0430\u0439\u043e\u043d\u0430 \u041f\u043e\u043a\u0440\u043e\u0432\u0441\u043a\u043e\u0435-\u0421\u0442\u0440\u0435\u0448\u043d\u0435\u0432\u043e", "office": "political_party"}}, {"type": "node", "id": 1227895668, "lat": 55.83423, "lon": 37.44934, "tags": {"addr:city": "\u041c\u043e\u0441\u043a\u0432\u0430", "addr:country": "RU", "addr:housenumber": "15 \u04412", "addr:street": "\u041c\u0430\u043b\u0430\u044f \u041d\u0430\u0431\u0435\u0440\u0435\u0436\u043d\u0430\u044f \u0443\u043b\u0438\u0446\u0430", "name": "\u0418\u043d\u0436\u0435\u043d\u0435\u0440\u043d\u0430\u044f \u0441\u043b\u0443\u0436\u0431\u0430 \u0440\u0430\u0439\u043e\u043d\u0430 \u041f\u043e\u043a\u0440\u043e\u0432\u0441\u043a\u043e\u0435-\u0421\u0442\u0440\u0435\u0448\u043d\u0435\u0432\u043e", "office": "property_management"}}, {"type": "node", "id": 1229873933, "lat": 55.7250042, "lon": 37.6376504, "tags": {"name": "\u041f\u0410\u041e \u00ab\u041d\u041a \u00ab\u0420\u043e\u0441\u043d\u0435\u0444\u0442\u044c\u00bb", "name:en": "Rosneft", "office": "company", "opening_hours": "Mo-Fr 09:00-18:00", "phone": "+7 499 5178888", "website": "https://www.rosneft.ru/"}}, {"type": "node", "id": 1233280554, "lat": 55.6487094, "lon": 37.7435763, "tags": {"brand": "\u041c\u0422\u0421", "brand:en": "MTS", "brand:wikidata": "Q1368919", "brand:wikipedia": "ru:\u041c\u0422\u0421 (\u043a\u043e\u043c\u043f\u0430\u043d\u0438\u044f)", "contact:facebook": "https://www.facebook.com/mts", "contact:ok": "https://ok.ru/mts", "contact:phone": "+7 800 2500890", "contact:twitter": "https://twitter.com/ru_mts", "contact:vk": "https://vk.com/mts", "contact:website": "https://shop.mts.ru", "function": "retail", "name": "\u041c\u0422\u0421", "name:en": "MTS", "name:ru": "\u041c\u0422\u0421", "office": "telecommunication", "opening_hours": "Mo-Su 09:00-22:00", "operator:wikidata": "Q1368919", "operator:wikipedia": "ru:\u041c\u0422\u0421 (\u043a\u043e\u043c\u043f\u0430\u043d\u0438\u044f)", "shop": "mobile_phone"}}, {"type": "node", "id": 1233280556, "lat": 55.6486306, "lon": 37.7437736, "tags": {"brand": "\u041c\u0435\u0433\u0430\u0424\u043e\u043d", "brand:wikidata": "Q1720713", "brand:wikipedia": "ru:\u041c\u0435\u0433\u0430\u0444\u043e\u043d (\u043a\u043e\u043c\u043f\u0430\u043d\u0438\u044f)", "check_date:opening_hours": "2021-06-19", "contact:facebook": "https://www.facebook.com/MegaFon.ru", "contact:habrahabr": "https://habrahabr.ru/company/megafon", "contact:ok": "https://ok.ru/megafon", "contact:phone": "+7 800 5500500", "contact:twitter": "https://twitter.com/megafonru", "contact:vk": "https://vk.com/megafon", "contact:website": "https://megafon.ru", "contact:youtube": "https://www.youtube.com/user/MegaFonTV", "name": "\u041c\u0435\u0433\u0430\u0424\u043e\u043d", "name:en": "MegaFon", "name:ru": "\u041c\u0435\u0433\u0430\u0424\u043e\u043d", "office": "telecommunication", "opening_hours": "Mo-Su 09:00-21:00", "operator:wikidata": "Q1720713", "operator:wikipedia": "ru:\u041c\u0435\u0433\u0430\u0444\u043e\u043d (\u043a\u043e\u043c\u043f\u0430\u043d\u0438\u044f)", "shop": "mobile_phone"}}, {"type": "node", "id": 1236178121, "lat": 55.6400467, "lon": 37.5289281, "tags": {"name": "\u041e\u0414\u0421-173", "office": "property_management"}}, {"type": "node", "id": 1236178145, "lat": 55.6324637, "lon": 37.522823, "tags": {"name": "\u0413\u0411\u0423 \"\u0418\u0421 \u0440\u0430\u0439\u043e\u043d\u0430 \u041a\u043e\u043d\u044c\u043a\u043e\u0432\u043e\"", "office": "yes"}}, {"type": "node", "id": 1240060896, "lat": 55.8611448, "lon": 37.6637943, "tags": {"addr:housenumber": "\u0432\u043b16", "addr:street": "\u0420\u0430\u0434\u0443\u0436\u043d\u0430\u044f \u0443\u043b\u0438\u0446\u0430", "name": "\u0413\u0423\u041f \u0414\u042d\u0417 47 \u041c\u0443\u043d\u0438\u0446\u0438\u043f\u0430\u043b\u044c\u043d\u0430\u044f \u0430\u0432\u0442\u043e\u0441\u0442\u043e\u044f\u043d\u043a\u0430", "office": "property_management"}}, {"type": "node", "id": 1243228194, "lat": 55.9003927, "lon": 37.4001938, "tags": {"addr:housenumber": "52", "addr:street": "\u041c\u043e\u043b\u043e\u0434\u0451\u0436\u043d\u0430\u044f \u0443\u043b\u0438\u0446\u0430", "name": "\u0420\u0415\u0421\u041e \u0413\u0430\u0440\u0430\u043d\u0442\u0438\u044f", "office": "insurance"}}, {"type": "node", "id": 1244154259, "lat": 55.7586263, "lon": 37.6520432, "tags": {"government": "recruitment", "name": "\u0426\u0435\u043d\u0442\u0440 \u0437\u0430\u043d\u044f\u0442\u043e\u0441\u0442\u0438 \u043d\u0430\u0441\u0435\u043b\u0435\u043d\u0438\u044f \u043e\u0442\u0434\u0435\u043b \u0411\u0430\u0441\u043c\u0430\u043d\u043d\u044b\u0439 \u0426\u0410\u041e \u0433. \u041c\u043e\u0441\u043a\u0432\u044b", "office": "government"}}, {"type": "node", "id": 1244160661, "lat": 55.7582991, "lon": 37.6513164, "tags": {"name": "\u0415\u0434\u0438\u043d\u044b\u0439 \u0446\u0435\u043d\u0442\u0440 \u043f\u0440\u043e\u0434\u0430\u0436 \u0413\u0423\u041f \u0433 .\u041c\u043e\u0441\u043a\u0432\u044b \u00ab\u0414\u0438\u0440\u0435\u043a\u0446\u0438\u044f \u0433\u0430\u0440\u0430\u0436\u043d\u043e\u0433\u043e \u0441\u0442\u0440\u043e\u0438\u0442\u0435\u043b\u044c\u0441\u0442\u0432\u0430\u00bb", "office": "estate_agent"}}, {"type": "node", "id": 1244186217, "lat": 55.9826522, "lon": 37.2033442, "tags": {"name": "\u042d\u043b\u0432\u0438\u0441-\u041f\u043b\u044e\u0441", "office": "company", "phone": "+7 495 7774290", "website": "https://elvis.ru/"}}, {"type": "node", "id": 1245294415, "lat": 55.7884225, "lon": 37.6632646, "tags": {"name": "\u0414\u0415\u0417 \u0440\u0430\u0439\u043e\u043d\u0430 \u0421\u043e\u043a\u043e\u043b\u044c\u043d\u0438\u043a\u0438", "office": "property_management"}}, {"type": "node", "id": 1248155387, "lat": 55.7334253, "lon": 37.5691211, "tags": {"name": "\u0418\u043d\u0441\u0442\u0438\u0442\u0443\u0442 \u0438\u043d\u0444\u043e\u0440\u043c\u0430\u0442\u0438\u0437\u0430\u0446\u0438\u0438 \u043e\u0431\u0440\u0430\u0437\u043e\u0432\u0430\u043d\u0438\u044f", "office": "research"}}, {"type": "node", "id": 1248155529, "lat": 55.7334715, "lon": 37.5692195, "tags": {"name": "\u0418\u043d\u0441\u0442\u0438\u0442\u0443\u0442 \u0441\u043e\u0446\u0438\u043e\u043b\u043e\u0433\u0438\u0438 \u043e\u0431\u0440\u0430\u0437\u043e\u0432\u0430\u043d\u0438\u044f", "office": "research", "short_name": "\u0418\u0421\u041e \u0420\u0410\u041e", "wikidata": "Q4201737", "wikipedia": "ru:\u0418\u043d\u0441\u0442\u0438\u0442\u0443\u0442 \u0441\u043e\u0446\u0438\u043e\u043b\u043e\u0433\u0438\u0438 \u043e\u0431\u0440\u0430\u0437\u043e\u0432\u0430\u043d\u0438\u044f \u0420\u0410\u041e"}}, {"type": "node", "id": 1248155544, "lat": 55.7335639, "lon": 37.5694162, "tags": {"name": "\u0418\u043d\u0441\u0442\u0438\u0442\u0443\u0442 \u0441\u0435\u043c\u044c\u0438 \u0438 \u0432\u043e\u0441\u043f\u0438\u0442\u0430\u043d\u0438\u044f", "office": "research"}},